{"type":"FeatureCollection", "features": [
{"type":"Feature","geometry":{"type":"Point","coordinates":[88.86651061800006,25.18034685500004]},"properties":{"Name":"Altadighi","Type":"National Park","Location":"Naogaon","EstdYear":"2011","Source":"The World Database on Protected Areas (WDPA), DoF","Area":"264.12"}},
{"type":"Feature","geometry":{"type":"Point","coordinates":[90.41758289200004,24.108148377000077]},"properties":{"Name":"Bhawal","Type":"National Park","Location":"Gazipur","EstdYear":"1982","Source":"The World Database on Protected Areas (WDPA), DoF","Area":"5022"}},
{"type":"Feature","geometry":{"type":"Point","coordinates":[91.63726222400004,22.72336916300003]},"properties":{"Name":"Baroiyadhala","Type":"National Park","Location":"Chittagong","EstdYear":"2010","Source":"The World Database on Protected Areas (WDPA), DoF","Area":"2933.61"}},
{"type":"Feature","geometry":{"type":"Point","coordinates":[88.66378537900005,25.846316116000025]},"properties":{"Name":"Birganj","Type":"National Park","Location":"Dinajpur","EstdYear":"2011","Source":"The World Database on Protected Areas (WDPA), DoF","Area":"168.56"}},
{"type":"Feature","geometry":{"type":"Point","coordinates":[92.05678992000009,21.375904159000072]},"properties":{"Name":"Himchari","Type":"National Park","Location":"Cox'S Bazar","EstdYear":"1980","Source":"The World Database on Protected Areas (WDPA), DoF","Area":"1729"}},
{"type":"Feature","geometry":{"type":"Point","coordinates":[90.33003285600006,24.337474265000026]},"properties":{"Name":"Kadigarh","Type":"National Park","Location":"Mymensingh","EstdYear":"2010","Source":"The World Database on Protected Areas (WDPA), DoF","Area":"344.13"}},
{"type":"Feature","geometry":{"type":"Point","coordinates":[92.21233901500005,22.494436069000074]},"properties":{"Name":"Kaptai","Type":"National Park","Location":"Rangamati","EstdYear":"1999","Source":"The World Database on Protected Areas (WDPA), DoF","Area":"5464"}},
{"type":"Feature","geometry":{"type":"Point","coordinates":[91.94895166500004,24.954510378000066]},"properties":{"Name":"Khadimnagar","Type":"National Park","Location":"Sylhet","EstdYear":"2006","Source":"The World Database on Protected Areas (WDPA), DoF","Area":"678.8"}},
{"type":"Feature","geometry":{"type":"Point","coordinates":[90.16054239800008,21.821164731000067]},"properties":{"Name":"Kuakata","Type":"National Park","Location":"Patuakhali","EstdYear":"2010","Source":"The World Database on Protected Areas (WDPA), DoF","Area":"1613"}},
{"type":"Feature","geometry":{"type":"Point","coordinates":[91.79643650200006,24.331274633000078]},"properties":{"Name":"Lawachara","Type":"National Park","Location":"Maulvibazar","EstdYear":"1996","Source":"The World Database on Protected Areas (WDPA), DoF","Area":"1250"}},
{"type":"Feature","geometry":{"type":"Point","coordinates":[90.09200434100006,24.700750495000023]},"properties":{"Name":"Madhupur","Type":"National Park","Location":"Mymensingh","EstdYear":"1982","Source":"The World Database on Protected Areas (WDPA), DoF","Area":"8436"}},
{"type":"Feature","geometry":{"type":"Point","coordinates":[92.07652991000003,21.632527895000067]},"properties":{"Name":"Medhakachhapia","Type":"National Park","Location":"Cox'S Bazar","EstdYear":"2004","Source":"The World Database on Protected Areas (WDPA), DoF","Area":"395.92"}},
{"type":"Feature","geometry":{"type":"Point","coordinates":[91.04026539500006,22.07318974800006]},"properties":{"Name":"Nijhum Dweep","Type":"National Park","Location":"Noakhali","EstdYear":"2001","Source":"The World Database on Protected Areas (WDPA), DoF","Area":"16352.23"}},
{"type":"Feature","geometry":{"type":"Point","coordinates":[89.05417777800005,25.42981727700004]},"properties":{"Name":"Nababganj","Type":"National Park","Location":"Dinajpur","EstdYear":"2010","Source":"The World Database on Protected Areas (WDPA), DoF","Area":"517.61"}},
{"type":"Feature","geometry":{"type":"Point","coordinates":[88.62632972800003,25.55564428400004]},"properties":{"Name":"Ramsagar","Type":"National Park","Location":"Dinajpur","EstdYear":"2001","Source":"The World Database on Protected Areas (WDPA), DoF","Area":"27.75"}},
{"type":"Feature","geometry":{"type":"Point","coordinates":[91.45643880600005,24.119941229000062]},"properties":{"Name":"Satchari","Type":"National Park","Location":"Habiganj","EstdYear":"2005","Source":"The World Database on Protected Areas (WDPA), DoF","Area":"242.91"}},
{"type":"Feature","geometry":{"type":"Point","coordinates":[88.56684945700005,25.89261591500008]},"properties":{"Name":"Singra","Type":"National Park","Location":"Dinajpur","EstdYear":"2010","Source":"The World Database on Protected Areas (WDPA), DoF","Area":"305.69"}}
]}