{"type":"FeatureCollection", "features": [
{"type":"Feature","geometry":{"type":"Point","coordinates":[92.33538819600005,20.767768575000048]},"properties":{"ID":70,"TYPE":"Growth Centre","NAME":"Shapariordwip Bazar"}},
{"type":"Feature","geometry":{"type":"Point","coordinates":[92.30331101600007,20.865924719000077]},"properties":{"ID":70,"TYPE":"Growth Centre","NAME":"Teknaf Bazar"}},
{"type":"Feature","geometry":{"type":"Point","coordinates":[92.24919443000005,21.012632840000038]},"properties":{"ID":70,"TYPE":"Growth Centre","NAME":"Nilla Bazer"}},
{"type":"Feature","geometry":{"type":"Point","coordinates":[92.14758583400004,21.078182353000045]},"properties":{"ID":70,"TYPE":"Growth Centre","NAME":"Shamlapur Bazar"}},
{"type":"Feature","geometry":{"type":"Point","coordinates":[92.20270308600004,21.117756753000037]},"properties":{"ID":70,"TYPE":"Growth Centre","NAME":"Whykon Bazar"}},
{"type":"Feature","geometry":{"type":"Point","coordinates":[92.17175131000005,21.181573365000077]},"properties":{"ID":70,"TYPE":"Growth Centre","NAME":"Balukhali Bazar"}},
{"type":"Feature","geometry":{"type":"Point","coordinates":[92.20300845700007,21.206728524000027]},"properties":{"ID":70,"TYPE":"Growth Centre","NAME":"Thumbru Bazar"}},
{"type":"Feature","geometry":{"type":"Point","coordinates":[92.13746669100004,21.24582583700004]},"properties":{"ID":70,"TYPE":"Growth Centre","NAME":"Daroga Bazar"}},
{"type":"Feature","geometry":{"type":"Point","coordinates":[92.06230127000003,21.282922217000078]},"properties":{"ID":70,"TYPE":"Growth Centre","NAME":"Shonapara Bazar"}},
{"type":"Feature","geometry":{"type":"Point","coordinates":[92.10098658700008,21.30810026000006]},"properties":{"ID":70,"TYPE":"Growth Centre","NAME":"Maricha Bazar"}},
{"type":"Feature","geometry":{"type":"Point","coordinates":[92.20333548100007,21.370388928000068]},"properties":{"ID":70,"TYPE":"Growth Centre","NAME":"Nuton Bazar Chakdala"}},
{"type":"Feature","geometry":{"type":"Point","coordinates":[92.18311850400005,21.427909535000026]},"properties":{"ID":70,"TYPE":"Growth Centre","NAME":"Naikhongchhari Bazar"}},
{"type":"Feature","geometry":{"type":"Point","coordinates":[92.03613226600004,21.430711932000065]},"properties":{"ID":70,"TYPE":"Growth Centre","NAME":"Bangla Bazar"}},
{"type":"Feature","geometry":{"type":"Point","coordinates":[92.10915453200005,21.43226098300005]},"properties":{"ID":70,"TYPE":"Growth Centre","NAME":"Ramu Fakira Bazer"}},
{"type":"Feature","geometry":{"type":"Point","coordinates":[92.19452824700005,21.443074331000048]},"properties":{"ID":70,"TYPE":"Growth Centre","NAME":"Garjania Bazar"}},
{"type":"Feature","geometry":{"type":"Point","coordinates":[91.99334237600004,21.459216353000045]},"properties":{"ID":70,"TYPE":"Growth Centre","NAME":"Khurushkul Time Bazar"}},
{"type":"Feature","geometry":{"type":"Point","coordinates":[92.10646619400006,21.47112052600005]},"properties":{"ID":70,"TYPE":"Growth Centre","NAME":"Jofrianala Bazar"}},
{"type":"Feature","geometry":{"type":"Point","coordinates":[92.21859798300005,21.484117945000037]},"properties":{"ID":70,"TYPE":"Growth Centre","NAME":"Beltoli Bazar"}},
{"type":"Feature","geometry":{"type":"Point","coordinates":[92.01676202800007,21.51531293100004]},"properties":{"ID":70,"TYPE":"Growth Centre","NAME":"Chowfaldandi Bazar"}},
{"type":"Feature","geometry":{"type":"Point","coordinates":[92.17665003700006,21.513840522000066]},"properties":{"ID":70,"TYPE":"Growth Centre","NAME":"Baishari Bazar"}},
{"type":"Feature","geometry":{"type":"Point","coordinates":[91.97018056000007,21.525679748000073]},"properties":{"ID":70,"TYPE":"Growth Centre","NAME":"Gorakghata Bazar"}},
{"type":"Feature","geometry":{"type":"Point","coordinates":[91.94095699200005,21.542216560000043]},"properties":{"ID":70,"TYPE":"Growth Centre","NAME":"Natun Bazar"}},
{"type":"Feature","geometry":{"type":"Point","coordinates":[91.93282351800008,21.552420684000026]},"properties":{"ID":70,"TYPE":"Growth Centre","NAME":"Fakiragaon Bazar"}},
{"type":"Feature","geometry":{"type":"Point","coordinates":[92.06968364700003,21.553603718000033]},"properties":{"ID":70,"TYPE":"Growth Centre","NAME":"Edgaon Bazar"}},
{"type":"Feature","geometry":{"type":"Point","coordinates":[92.14984348000007,21.581015018000073]},"properties":{"ID":70,"TYPE":"Growth Centre","NAME":"Idgar Bazar"}},
{"type":"Feature","geometry":{"type":"Point","coordinates":[92.06694903900006,21.614692027000046]},"properties":{"ID":70,"TYPE":"Growth Centre","NAME":"Khutakhali Bazar"}},
{"type":"Feature","geometry":{"type":"Point","coordinates":[92.31186191400008,21.64677300200003]},"properties":{"ID":70,"TYPE":"Growth Centre","NAME":"Alikadam Bazar"}},
{"type":"Feature","geometry":{"type":"Point","coordinates":[91.96796557700009,21.659870200000057]},"properties":{"ID":70,"TYPE":"Growth Centre","NAME":"Shaplapur Bazar"}},
{"type":"Feature","geometry":{"type":"Point","coordinates":[92.07518653800008,21.660432892000074]},"properties":{"ID":70,"TYPE":"Growth Centre","NAME":"Dulahalara Bazar"}},
{"type":"Feature","geometry":{"type":"Point","coordinates":[91.95233291500006,21.718093907000025]},"properties":{"ID":70,"TYPE":"Growth Centre","NAME":"Badarkhali Bazar"}},
{"type":"Feature","geometry":{"type":"Point","coordinates":[91.90322192700006,21.748460435000027]},"properties":{"ID":70,"TYPE":"Growth Centre","NAME":"Matarbari Natun Bazar"}},
{"type":"Feature","geometry":{"type":"Point","coordinates":[92.15328279000005,21.752280760000076]},"properties":{"ID":70,"TYPE":"Growth Centre","NAME":"Manikpur Bazar"}},
{"type":"Feature","geometry":{"type":"Point","coordinates":[92.06965826200008,21.77037021500007]},"properties":{"ID":70,"TYPE":"Growth Centre","NAME":"Ghanashyam Bazar"}},
{"type":"Feature","geometry":{"type":"Point","coordinates":[91.85331401300004,21.81619706300006]},"properties":{"ID":70,"TYPE":"Growth Centre","NAME":"Baroghope Bazar"}},
{"type":"Feature","geometry":{"type":"Point","coordinates":[92.44915135200006,21.807797668000035]},"properties":{"ID":70,"TYPE":"Growth Centre","NAME":"Thanchi Bazar"}},
{"type":"Feature","geometry":{"type":"Point","coordinates":[90.22018323300006,21.842198075000056]},"properties":{"ID":70,"TYPE":"Growth Centre","NAME":"Chapali Hat"}},
{"type":"Feature","geometry":{"type":"Point","coordinates":[91.98723581800004,21.838073403000067]},"properties":{"ID":70,"TYPE":"Growth Centre","NAME":"Sawdagar Hat"}},
{"type":"Feature","geometry":{"type":"Point","coordinates":[90.12941545100006,21.860298724000074]},"properties":{"ID":70,"TYPE":"Growth Centre","NAME":"Mohipur Hat"}},
{"type":"Feature","geometry":{"type":"Point","coordinates":[91.86097725700006,21.876981184000044]},"properties":{"ID":70,"TYPE":"Growth Centre","NAME":"Dhurang Bazar"}},
{"type":"Feature","geometry":{"type":"Point","coordinates":[91.94819795000006,21.88196763600007]},"properties":{"ID":70,"TYPE":"Growth Centre","NAME":"Arabsha Bazar"}},
{"type":"Feature","geometry":{"type":"Point","coordinates":[92.39150629100004,21.883792908000032]},"properties":{"ID":70,"TYPE":"Growth Centre","NAME":"Bolipara Bazar"}},
{"type":"Feature","geometry":{"type":"Point","coordinates":[92.22476431100006,21.89969159900005]},"properties":{"ID":70,"TYPE":"Growth Centre","NAME":"Daluchari Bazar"}},
{"type":"Feature","geometry":{"type":"Point","coordinates":[91.95881490100004,21.919163851000064]},"properties":{"ID":70,"TYPE":"Growth Centre","NAME":"Bahaddar Hat"}},
{"type":"Feature","geometry":{"type":"Point","coordinates":[90.28041800000005,21.951063676000047]},"properties":{"ID":70,"TYPE":"Growth Centre","NAME":"Lalua Hat"}},
{"type":"Feature","geometry":{"type":"Point","coordinates":[92.12164481500008,21.95604254500006]},"properties":{"ID":70,"TYPE":"Growth Centre","NAME":"M. char Bazar"}},
{"type":"Feature","geometry":{"type":"Point","coordinates":[90.08929753200005,21.98458301000005]},"properties":{"ID":70,"TYPE":"Growth Centre","NAME":"Taltali Hat"}},
{"type":"Feature","geometry":{"type":"Point","coordinates":[90.22459898800008,21.988100906000057]},"properties":{"ID":70,"TYPE":"Growth Centre","NAME":"KHEPUPARA HAT  (H.Q)(M.A)"}},
{"type":"Feature","geometry":{"type":"Point","coordinates":[91.93288815800008,21.982066454000062]},"properties":{"ID":70,"TYPE":"Growth Centre","NAME":"Manikirchar natun Hat"}},
{"type":"Feature","geometry":{"type":"Point","coordinates":[90.03340239100004,22.002754589000062]},"properties":{"ID":70,"TYPE":"Growth Centre","NAME":"Babuganj Bazar"}},
{"type":"Feature","geometry":{"type":"Point","coordinates":[92.15200019400004,21.987767446000078]},"properties":{"ID":70,"TYPE":"Growth Centre","NAME":"Kanuram Bazar"}},
{"type":"Feature","geometry":{"type":"Point","coordinates":[92.08844214200008,21.99180358600006]},"properties":{"ID":70,"TYPE":"Growth Centre","NAME":"Adhunagar Khan Hat"}},
{"type":"Feature","geometry":{"type":"Point","coordinates":[91.95483388200006,22.007636586000046]},"properties":{"ID":70,"TYPE":"Growth Centre","NAME":"Jaldi Mia Hat"}},
{"type":"Feature","geometry":{"type":"Point","coordinates":[90.68390819700005,22.022803143000033]},"properties":{"ID":70,"TYPE":"Growth Centre","NAME":"Dakshin Char Aicha Bazar"}},
{"type":"Feature","geometry":{"type":"Point","coordinates":[90.05935998500007,22.042132183000035]},"properties":{"ID":70,"TYPE":"Growth Centre","NAME":"PARIR KHAL BAZAR"}},
{"type":"Feature","geometry":{"type":"Point","coordinates":[89.97437050600007,22.04270144900005]},"properties":{"ID":70,"TYPE":"Growth Centre","NAME":"Patharghata Hat"}},
{"type":"Feature","geometry":{"type":"Point","coordinates":[90.53214231900006,22.048784891000025]},"properties":{"ID":70,"TYPE":"Growth Centre","NAME":"Charbiswash Hat"}},
{"type":"Feature","geometry":{"type":"Point","coordinates":[90.12179496800007,22.056098811000027]},"properties":{"ID":70,"TYPE":"Growth Centre","NAME":"Bogir Hat"}},
{"type":"Feature","geometry":{"type":"Point","coordinates":[92.40878193900005,22.043898983000076]},"properties":{"ID":70,"TYPE":"Growth Centre","NAME":"Ruma Bazar"}},
{"type":"Feature","geometry":{"type":"Point","coordinates":[90.18625084600006,22.067106772000045]},"properties":{"ID":70,"TYPE":"Growth Centre","NAME":"Kachupatra Hat"}},
{"type":"Feature","geometry":{"type":"Point","coordinates":[92.11374017300005,22.05181265600004]},"properties":{"ID":70,"TYPE":"Growth Centre","NAME":"Tewari Hat"}},
{"type":"Feature","geometry":{"type":"Point","coordinates":[90.10267986000008,22.073948656000027]},"properties":{"ID":70,"TYPE":"Growth Centre","NAME":"Chaltali Bazar"}},
{"type":"Feature","geometry":{"type":"Point","coordinates":[90.04347200900008,22.075096673000075]},"properties":{"ID":70,"TYPE":"Growth Centre","NAME":"Nali Hat"}},
{"type":"Feature","geometry":{"type":"Point","coordinates":[90.30422379500004,22.07834008100008]},"properties":{"ID":70,"TYPE":"Growth Centre","NAME":"Nomor (Dhankhali)Hat"}},
{"type":"Feature","geometry":{"type":"Point","coordinates":[91.89433467000003,22.064339308000058]},"properties":{"ID":70,"TYPE":"Growth Centre","NAME":"Bashirulla Miazi Hat"}},
{"type":"Feature","geometry":{"type":"Point","coordinates":[92.05323583300003,22.07361982200007]},"properties":{"ID":70,"TYPE":"Growth Centre","NAME":"Dewan Hat"}},
{"type":"Feature","geometry":{"type":"Point","coordinates":[91.93944196200005,22.07885043300007]},"properties":{"ID":70,"TYPE":"Growth Centre","NAME":"Ramdash Munshir Hat"}},
{"type":"Feature","geometry":{"type":"Point","coordinates":[90.01168532000008,22.10017175400003]},"properties":{"ID":70,"TYPE":"Growth Centre","NAME":"Kalmegha at"}},
{"type":"Feature","geometry":{"type":"Point","coordinates":[90.76325088000004,22.104133129000047]},"properties":{"ID":70,"TYPE":"Growth Centre","NAME":"Chairman Hat"}},
{"type":"Feature","geometry":{"type":"Point","coordinates":[90.71090990600004,22.10804276600004]},"properties":{"ID":70,"TYPE":"Growth Centre","NAME":"Shashibusan Hat"}},
{"type":"Feature","geometry":{"type":"Point","coordinates":[90.64210253900006,22.112417485000037]},"properties":{"ID":70,"TYPE":"Growth Centre","NAME":"Anjur Hat"}},
{"type":"Feature","geometry":{"type":"Point","coordinates":[89.93060786800004,22.119216910000034]},"properties":{"ID":70,"TYPE":"Growth Centre","NAME":"Charduani Hat"}},
{"type":"Feature","geometry":{"type":"Point","coordinates":[92.07466531500006,22.10407174100004]},"properties":{"ID":70,"TYPE":"Growth Centre","NAME":"Keranir Hat"}},
{"type":"Feature","geometry":{"type":"Point","coordinates":[91.90133415900004,22.11709286300004]},"properties":{"ID":70,"TYPE":"Growth Centre","NAME":"Iswar Babur Hat"}},
{"type":"Feature","geometry":{"type":"Point","coordinates":[90.22885523100007,22.141419161000044]},"properties":{"ID":70,"TYPE":"Growth Centre","NAME":"Amtali Hat"}},
{"type":"Feature","geometry":{"type":"Point","coordinates":[92.12948608200008,22.132507557000054]},"properties":{"ID":70,"TYPE":"Growth Centre","NAME":"Bomong Hat"}},
{"type":"Feature","geometry":{"type":"Point","coordinates":[90.93341648300003,22.14579231400006]},"properties":{"ID":70,"TYPE":"Growth Centre","NAME":"Koralia Hat"}},
{"type":"Feature","geometry":{"type":"Point","coordinates":[92.04502202600008,22.136468972000046]},"properties":{"ID":70,"TYPE":"Growth Centre","NAME":"Khagaria Bhor Hat"}},
{"type":"Feature","geometry":{"type":"Point","coordinates":[91.07175379900008,22.151788570000065]},"properties":{"ID":70,"TYPE":"Growth Centre","NAME":"Jahajmara Bazar"}},
{"type":"Feature","geometry":{"type":"Point","coordinates":[92.17655529400008,22.140738080000062]},"properties":{"ID":70,"TYPE":"Growth Centre","NAME":"Suwalok Bazar"}},
{"type":"Feature","geometry":{"type":"Point","coordinates":[92.02038789700003,22.14488557100003]},"properties":{"ID":70,"TYPE":"Growth Centre","NAME":"Khodar Hat"}},
{"type":"Feature","geometry":{"type":"Point","coordinates":[90.33614809100004,22.16579354600003]},"properties":{"ID":70,"TYPE":"Growth Centre","NAME":"Gazipur hat"}},
{"type":"Feature","geometry":{"type":"Point","coordinates":[90.39854044700007,22.167521496000063]},"properties":{"ID":70,"TYPE":"Growth Centre","NAME":"Galachipa Hat"}},
{"type":"Feature","geometry":{"type":"Point","coordinates":[92.07179982000008,22.161883189000037]},"properties":{"ID":70,"TYPE":"Growth Centre","NAME":"Hazari Hat"}},
{"type":"Feature","geometry":{"type":"Point","coordinates":[92.17847937000005,22.16056375100004]},"properties":{"ID":70,"TYPE":"Growth Centre","NAME":"Raicha Bazar"}},
{"type":"Feature","geometry":{"type":"Point","coordinates":[90.93944320000008,22.175572229000068]},"properties":{"ID":70,"TYPE":"Growth Centre","NAME":"Bangla Bazar"}},
{"type":"Feature","geometry":{"type":"Point","coordinates":[90.02004782600005,22.181507276000048]},"properties":{"ID":70,"TYPE":"Growth Centre","NAME":"Kakchira Hat"}},
{"type":"Feature","geometry":{"type":"Point","coordinates":[89.99467423300007,22.185309391000033]},"properties":{"ID":70,"TYPE":"Growth Centre","NAME":"Lamua Hat"}},
{"type":"Feature","geometry":{"type":"Point","coordinates":[90.76099988900006,22.187409192000075]},"properties":{"ID":70,"TYPE":"Growth Centre","NAME":"Charfession Hat"}},
{"type":"Feature","geometry":{"type":"Point","coordinates":[91.98647693300006,22.176413000000025]},"properties":{"ID":70,"TYPE":"Growth Centre","NAME":"Dhamir Hat"}},
{"type":"Feature","geometry":{"type":"Point","coordinates":[92.34265618200004,22.17230558600005]},"properties":{"ID":70,"TYPE":"Growth Centre","NAME":"Rowangchhari Bazar"}},
{"type":"Feature","geometry":{"type":"Point","coordinates":[90.67618728400004,22.192379553000023]},"properties":{"ID":70,"TYPE":"Growth Centre","NAME":"Dular hat"}},
{"type":"Feature","geometry":{"type":"Point","coordinates":[90.47272339000006,22.195871557000032]},"properties":{"ID":70,"TYPE":"Growth Centre","NAME":"Ulania Hat"}},
{"type":"Feature","geometry":{"type":"Point","coordinates":[91.86841245500005,22.196861898000066]},"properties":{"ID":70,"TYPE":"Growth Centre","NAME":"Rustum Hat"}},
{"type":"Feature","geometry":{"type":"Point","coordinates":[90.07911849800007,22.210103168000046]},"properties":{"ID":70,"TYPE":"Growth Centre","NAME":"Phuljhuri Hat"}},
{"type":"Feature","geometry":{"type":"Point","coordinates":[89.92048995600004,22.21762241600004]},"properties":{"ID":70,"TYPE":"Growth Centre","NAME":"Shaplaza Hat"}},
{"type":"Feature","geometry":{"type":"Point","coordinates":[90.20111129000009,22.22423986800004]},"properties":{"ID":70,"TYPE":"Growth Centre","NAME":"Ayla Hat"}},
{"type":"Feature","geometry":{"type":"Point","coordinates":[92.03221250900003,22.21569547000007]},"properties":{"ID":70,"TYPE":"Growth Centre","NAME":"Khan Hat"}},
{"type":"Feature","geometry":{"type":"Point","coordinates":[91.07569598600008,22.226525037000044]},"properties":{"ID":70,"TYPE":"Growth Centre","NAME":"Char Changa Hat"}},
{"type":"Feature","geometry":{"type":"Point","coordinates":[89.15752863800003,22.229067412000063]},"properties":{"ID":70,"TYPE":"Growth Centre","NAME":"Harinagar Hat"}},
{"type":"Feature","geometry":{"type":"Point","coordinates":[91.91260570400004,22.219048131000022]},"properties":{"ID":70,"TYPE":"Growth Centre","NAME":"Joikalir Hat"}},
{"type":"Feature","geometry":{"type":"Point","coordinates":[89.32243870300005,22.231619687000034]},"properties":{"ID":70,"TYPE":"Growth Centre","NAME":"Ghorilal hat"}},
{"type":"Feature","geometry":{"type":"Point","coordinates":[89.09170886300006,22.236655408000047]},"properties":{"ID":70,"TYPE":"Growth Centre","NAME":"Bhetkhali Hat"}},
{"type":"Feature","geometry":{"type":"Point","coordinates":[89.07086944600007,22.237638040000036]},"properties":{"ID":70,"TYPE":"Growth Centre","NAME":"Jadar Hat"}},
{"type":"Feature","geometry":{"type":"Point","coordinates":[91.87617523300008,22.230719488000034]},"properties":{"ID":70,"TYPE":"Growth Centre","NAME":"Chaturi Chowmuhani Hat"}},
{"type":"Feature","geometry":{"type":"Point","coordinates":[89.97687484200009,22.244658385000037]},"properties":{"ID":70,"TYPE":"Growth Centre","NAME":"Gulishakhali Hat"}},
{"type":"Feature","geometry":{"type":"Point","coordinates":[91.93383990400008,22.23266843500005]},"properties":{"ID":70,"TYPE":"Growth Centre","NAME":"K.B. Sattar Hat"}},
{"type":"Feature","geometry":{"type":"Point","coordinates":[90.15978996700005,22.25108466200004]},"properties":{"ID":70,"TYPE":"Growth Centre","NAME":"CHANDUKHALI HAT"}},
{"type":"Feature","geometry":{"type":"Point","coordinates":[92.28840714600005,22.23608129300004]},"properties":{"ID":70,"TYPE":"Growth Centre","NAME":"Bagmara Bazar"}},
{"type":"Feature","geometry":{"type":"Point","coordinates":[90.32057975100008,22.257212389000074]},"properties":{"ID":70,"TYPE":"Growth Centre","NAME":"Badura Hat"}},
{"type":"Feature","geometry":{"type":"Point","coordinates":[90.33549578200007,22.257715827000027]},"properties":{"ID":70,"TYPE":"Growth Centre","NAME":"Badura Hat"}},
{"type":"Feature","geometry":{"type":"Point","coordinates":[90.51333792400004,22.258185600000047]},"properties":{"ID":70,"TYPE":"Growth Centre","NAME":"Alipura Hat"}},
{"type":"Feature","geometry":{"type":"Point","coordinates":[90.03227072300007,22.25915582500005]},"properties":{"ID":70,"TYPE":"Growth Centre","NAME":"Dauatala Hat"}},
{"type":"Feature","geometry":{"type":"Point","coordinates":[89.83063522500004,22.260348257000032]},"properties":{"ID":70,"TYPE":"Growth Centre","NAME":"Tafalbari Bazar"}},
{"type":"Feature","geometry":{"type":"Point","coordinates":[91.92980120200008,22.247999191000076]},"properties":{"ID":70,"TYPE":"Growth Centre","NAME":"Lalanagar Hat"}},
{"type":"Feature","geometry":{"type":"Point","coordinates":[90.96614641500008,22.26167745600003]},"properties":{"ID":70,"TYPE":"Growth Centre","NAME":"Hazirhat"}},
{"type":"Feature","geometry":{"type":"Point","coordinates":[90.07445745500007,22.26565239200005]},"properties":{"ID":70,"TYPE":"Growth Centre","NAME":"Kholpotua Hat"}},
{"type":"Feature","geometry":{"type":"Point","coordinates":[90.21145131600008,22.265513722000037]},"properties":{"ID":70,"TYPE":"Growth Centre","NAME":"Voyang Hat"}},
{"type":"Feature","geometry":{"type":"Point","coordinates":[90.59262696100006,22.26682419900004]},"properties":{"ID":70,"TYPE":"Growth Centre","NAME":"Hazir Hat"}},
{"type":"Feature","geometry":{"type":"Point","coordinates":[90.27551992200006,22.268595466000022]},"properties":{"ID":70,"TYPE":"Growth Centre","NAME":"Khasher Hat"}},
{"type":"Feature","geometry":{"type":"Point","coordinates":[90.78837451900006,22.26867420800005]},"properties":{"ID":70,"TYPE":"Growth Centre","NAME":"Raychand Hat"}},
{"type":"Feature","geometry":{"type":"Point","coordinates":[90.70858556300004,22.271940761000053]},"properties":{"ID":70,"TYPE":"Growth Centre","NAME":"Gazaira Hat"}},
{"type":"Feature","geometry":{"type":"Point","coordinates":[92.00072823900007,22.26546545800005]},"properties":{"ID":70,"TYPE":"Growth Centre","NAME":"Olir Hat"}},
{"type":"Feature","geometry":{"type":"Point","coordinates":[90.25999720800007,22.27958267500003]},"properties":{"ID":70,"TYPE":"Growth Centre","NAME":"Khatashia Hat"}},
{"type":"Feature","geometry":{"type":"Point","coordinates":[89.96309972500006,22.287949645000026]},"properties":{"ID":70,"TYPE":"Growth Centre","NAME":"Mathbaria Hat"}},
{"type":"Feature","geometry":{"type":"Point","coordinates":[91.86182448400007,22.282600520000074]},"properties":{"ID":70,"TYPE":"Growth Centre","NAME":"Fakirnir Hat"}},
{"type":"Feature","geometry":{"type":"Point","coordinates":[91.07861681000009,22.291449991000036]},"properties":{"ID":70,"TYPE":"Growth Centre","NAME":"Tamaruddin Bazar"}},
{"type":"Feature","geometry":{"type":"Point","coordinates":[91.14614035300008,22.291563300000064]},"properties":{"ID":70,"TYPE":"Growth Centre","NAME":"Ojkhali Bazar"}},
{"type":"Feature","geometry":{"type":"Point","coordinates":[90.39105979900006,22.295715001000076]},"properties":{"ID":70,"TYPE":"Growth Centre","NAME":"Kalagachia Hat"}},
{"type":"Feature","geometry":{"type":"Point","coordinates":[89.78609692300006,22.29716681600007]},"properties":{"ID":70,"TYPE":"Growth Centre","NAME":"Rosulpur Bazar"}},
{"type":"Feature","geometry":{"type":"Point","coordinates":[91.91943268100005,22.284537358000023]},"properties":{"ID":70,"TYPE":"Growth Centre","NAME":"Budhpura Hat"}},
{"type":"Feature","geometry":{"type":"Point","coordinates":[90.41708239500008,22.300582849000023]},"properties":{"ID":70,"TYPE":"Growth Centre","NAME":"Dharandi Hat"}},
{"type":"Feature","geometry":{"type":"Point","coordinates":[89.81934555000004,22.304683753000063]},"properties":{"ID":70,"TYPE":"Growth Centre","NAME":"Bangla Bazar"}},
{"type":"Feature","geometry":{"type":"Point","coordinates":[90.20057756000006,22.307575325000073]},"properties":{"ID":70,"TYPE":"Growth Centre","NAME":"kakrabunia Hat"}},
{"type":"Feature","geometry":{"type":"Point","coordinates":[90.09544189800005,22.308620107000024]},"properties":{"ID":70,"TYPE":"Growth Centre","NAME":"Bamna Hat"}},
{"type":"Feature","geometry":{"type":"Point","coordinates":[90.59269632800005,22.307907819000036]},"properties":{"ID":70,"TYPE":"Growth Centre","NAME":"Gachani Hat"}},
{"type":"Feature","geometry":{"type":"Point","coordinates":[89.85840722500006,22.312659059000055]},"properties":{"ID":70,"TYPE":"Growth Centre","NAME":"Rayenda Bazar"}},
{"type":"Feature","geometry":{"type":"Point","coordinates":[90.53750800000006,22.317294522000054]},"properties":{"ID":70,"TYPE":"Growth Centre","NAME":"Bara Gopaldi Hat"}},
{"type":"Feature","geometry":{"type":"Point","coordinates":[90.11503095200004,22.319734895000067]},"properties":{"ID":70,"TYPE":"Growth Centre","NAME":"Badnikhali Hat"}},
{"type":"Feature","geometry":{"type":"Point","coordinates":[91.88039784900008,22.30944786500004]},"properties":{"ID":70,"TYPE":"Growth Centre","NAME":"Kanta Fakir Hat"}},
{"type":"Feature","geometry":{"type":"Point","coordinates":[90.45903070000008,22.325156191000076]},"properties":{"ID":70,"TYPE":"Growth Centre","NAME":"Patabunia Hat"}},
{"type":"Feature","geometry":{"type":"Point","coordinates":[92.00394662500008,22.31572443600004]},"properties":{"ID":70,"TYPE":"Growth Centre","NAME":"Kelishahar Bhattacharjee Hat"}},
{"type":"Feature","geometry":{"type":"Point","coordinates":[90.13896064500005,22.333929890000036]},"properties":{"ID":70,"TYPE":"Growth Centre","NAME":"KAZIRHAT"}},
{"type":"Feature","geometry":{"type":"Point","coordinates":[89.78097518800007,22.335670438000022]},"properties":{"ID":70,"TYPE":"Growth Centre","NAME":"Rajapur Bazar"}},
{"type":"Feature","geometry":{"type":"Point","coordinates":[89.03948624400005,22.33421803400006]},"properties":{"ID":70,"TYPE":"Growth Centre","NAME":"Nurnagar Hat"}},
{"type":"Feature","geometry":{"type":"Point","coordinates":[90.98258873100008,22.33566287600007]},"properties":{"ID":70,"TYPE":"Growth Centre","NAME":"Ramnawas Hat"}},
{"type":"Feature","geometry":{"type":"Point","coordinates":[89.11054473300004,22.33744697000003]},"properties":{"ID":70,"TYPE":"Growth Centre","NAME":"Nokibpur Hat"}},
{"type":"Feature","geometry":{"type":"Point","coordinates":[91.90329420700004,22.330719114000033]},"properties":{"ID":70,"TYPE":"Growth Centre","NAME":"Safar Ali Munshir Hat"}},
{"type":"Feature","geometry":{"type":"Point","coordinates":[90.73289799100007,22.34187657800004]},"properties":{"ID":70,"TYPE":"Growth Centre","NAME":"Lalmohan Hat"}},
{"type":"Feature","geometry":{"type":"Point","coordinates":[90.28410977500005,22.344294786000034]},"properties":{"ID":70,"TYPE":"Growth Centre","NAME":"Bottolbunia Hat"}},
{"type":"Feature","geometry":{"type":"Point","coordinates":[90.82753905100003,22.343122350000044]},"properties":{"ID":70,"TYPE":"Growth Centre","NAME":"Mongalsikder Hat"}},
{"type":"Feature","geometry":{"type":"Point","coordinates":[89.20430089900003,22.349577475000046]},"properties":{"ID":70,"TYPE":"Growth Centre","NAME":"Noabeki Hat"}},
{"type":"Feature","geometry":{"type":"Point","coordinates":[90.08162084800006,22.355803003000062]},"properties":{"ID":70,"TYPE":"Growth Centre","NAME":"Amua Hat"}},
{"type":"Feature","geometry":{"type":"Point","coordinates":[91.93224474300007,22.349321710000027]},"properties":{"ID":70,"TYPE":"Growth Centre","NAME":"Lalar Hat"}},
{"type":"Feature","geometry":{"type":"Point","coordinates":[89.92889699700004,22.362666614000034]},"properties":{"ID":70,"TYPE":"Growth Centre","NAME":"Tulshikhali Hat"}},
{"type":"Feature","geometry":{"type":"Point","coordinates":[90.22059407200004,22.363296226000045]},"properties":{"ID":70,"TYPE":"Growth Centre","NAME":"Subidkhali Hat"}},
{"type":"Feature","geometry":{"type":"Point","coordinates":[89.63918550400007,22.367366465000032]},"properties":{"ID":70,"TYPE":"Growth Centre","NAME":"Joymonir Gol Hat"}},
{"type":"Feature","geometry":{"type":"Point","coordinates":[89.85891919900007,22.370839673000035]},"properties":{"ID":70,"TYPE":"Growth Centre","NAME":"Baniakhali Gc"}},
{"type":"Feature","geometry":{"type":"Point","coordinates":[92.40992648400004,22.351100675000055]},"properties":{"ID":70,"TYPE":"Growth Centre","NAME":"Farua Bazar"}},
{"type":"Feature","geometry":{"type":"Point","coordinates":[91.97217856000003,22.370224989000064]},"properties":{"ID":70,"TYPE":"Growth Centre","NAME":"Kalayer Hat"}},
{"type":"Feature","geometry":{"type":"Point","coordinates":[90.81456310200008,22.381826475000025]},"properties":{"ID":70,"TYPE":"Growth Centre","NAME":"Khasher Hat"}},
{"type":"Feature","geometry":{"type":"Point","coordinates":[89.31059088200004,22.382528250000064]},"properties":{"ID":70,"TYPE":"Growth Centre","NAME":"Haitkhali Hat"}},
{"type":"Feature","geometry":{"type":"Point","coordinates":[89.22089137400008,22.38318271600008]},"properties":{"ID":70,"TYPE":"Growth Centre","NAME":"Protabnagor Hat"}},
{"type":"Feature","geometry":{"type":"Point","coordinates":[92.26150426000004,22.36878478400007]},"properties":{"ID":70,"TYPE":"Growth Centre","NAME":"Rajosthali Bazar"}},
{"type":"Feature","geometry":{"type":"Point","coordinates":[90.12836597800003,22.391866046000075]},"properties":{"ID":70,"TYPE":"Growth Centre","NAME":"Aura Hat"}},
{"type":"Feature","geometry":{"type":"Point","coordinates":[89.12375303100004,22.39008368700007]},"properties":{"ID":70,"TYPE":"Growth Centre","NAME":"Baliadanga Hat"}},
{"type":"Feature","geometry":{"type":"Point","coordinates":[89.02996888300004,22.391479984000057]},"properties":{"ID":70,"TYPE":"Growth Centre","NAME":"Ratanpur Hat"}},
{"type":"Feature","geometry":{"type":"Point","coordinates":[90.74937469500009,22.392876225000066]},"properties":{"ID":70,"TYPE":"Growth Centre","NAME":"Dawrir Hat"}},
{"type":"Feature","geometry":{"type":"Point","coordinates":[90.59094466200008,22.393967710000027]},"properties":{"ID":70,"TYPE":"Growth Centre","NAME":"Kalaia Bazar"}},
{"type":"Feature","geometry":{"type":"Point","coordinates":[91.92278830000004,22.383430712000063]},"properties":{"ID":70,"TYPE":"Growth Centre","NAME":"Murad Munshir Hat"}},
{"type":"Feature","geometry":{"type":"Point","coordinates":[90.37540753800005,22.397545747000038]},"properties":{"ID":70,"TYPE":"Growth Centre","NAME":"Laukathi Hat"}},
{"type":"Feature","geometry":{"type":"Point","coordinates":[89.25945519500004,22.407742101000053]},"properties":{"ID":70,"TYPE":"Growth Centre","NAME":"Hogla Hat"}},
{"type":"Feature","geometry":{"type":"Point","coordinates":[91.97490818500006,22.401757736000036]},"properties":{"ID":70,"TYPE":"Growth Centre","NAME":"Nurullah Munshir Hat"}},
{"type":"Feature","geometry":{"type":"Point","coordinates":[90.17266109100007,22.418537100000037]},"properties":{"ID":70,"TYPE":"Growth Centre","NAME":"BETAGI HAT"}},
{"type":"Feature","geometry":{"type":"Point","coordinates":[90.55913425000006,22.419484398000066]},"properties":{"ID":70,"TYPE":"Growth Centre","NAME":"Bauphal Bazar"}},
{"type":"Feature","geometry":{"type":"Point","coordinates":[90.85694287300004,22.419764902000054]},"properties":{"ID":70,"TYPE":"Growth Centre","NAME":"Hat Shashigonj"}},
{"type":"Feature","geometry":{"type":"Point","coordinates":[90.81437465300007,22.42067234700005]},"properties":{"ID":70,"TYPE":"Growth Centre","NAME":"Choto Dawri Hat"}},
{"type":"Feature","geometry":{"type":"Point","coordinates":[90.69981765900008,22.422383463000074]},"properties":{"ID":70,"TYPE":"Growth Centre","NAME":"Moazzam Hat"}},
{"type":"Feature","geometry":{"type":"Point","coordinates":[89.96924637300003,22.426297029000068]},"properties":{"ID":70,"TYPE":"Growth Centre","NAME":"Telikhali Hat"}},
{"type":"Feature","geometry":{"type":"Point","coordinates":[89.61088592600004,22.42738786600006]},"properties":{"ID":70,"TYPE":"Growth Centre","NAME":"Chila Hat"}},
{"type":"Feature","geometry":{"type":"Point","coordinates":[90.46793776800007,22.427907573000027]},"properties":{"ID":70,"TYPE":"Growth Centre","NAME":"Boga Bazar"}},
{"type":"Feature","geometry":{"type":"Point","coordinates":[90.07385006700008,22.430880261000027]},"properties":{"ID":70,"TYPE":"Growth Centre","NAME":"Koikhali Hat"}},
{"type":"Feature","geometry":{"type":"Point","coordinates":[90.76834204500005,22.430296639000062]},"properties":{"ID":70,"TYPE":"Growth Centre","NAME":"Kunjer Hat"}},
{"type":"Feature","geometry":{"type":"Point","coordinates":[89.65558895200007,22.432370175000074]},"properties":{"ID":70,"TYPE":"Growth Centre","NAME":"Banstola Hat"}},
{"type":"Feature","geometry":{"type":"Point","coordinates":[91.86760932600004,22.422065344000032]},"properties":{"ID":70,"TYPE":"Growth Centre","NAME":"Nazu Mia Hat"}},
{"type":"Feature","geometry":{"type":"Point","coordinates":[91.49650452600008,22.428963718000034]},"properties":{"ID":70,"TYPE":"Growth Centre","NAME":"SHIBER HAT"}},
{"type":"Feature","geometry":{"type":"Point","coordinates":[90.34802651700005,22.436703528000066]},"properties":{"ID":70,"TYPE":"Growth Centre","NAME":"Moukaran Hat"}},
{"type":"Feature","geometry":{"type":"Point","coordinates":[90.34832052200005,22.436815612000032]},"properties":{"ID":70,"TYPE":"Growth Centre","NAME":"Maukaran Hat"}},
{"type":"Feature","geometry":{"type":"Point","coordinates":[91.94378023300004,22.428117291000035]},"properties":{"ID":70,"TYPE":"Growth Centre","NAME":"Lambur Hat"}},
{"type":"Feature","geometry":{"type":"Point","coordinates":[91.87113214900006,22.43119763900006]},"properties":{"ID":70,"TYPE":"Growth Centre","NAME":"Madunaghat Hat"}},
{"type":"Feature","geometry":{"type":"Point","coordinates":[90.42907547600004,22.443981173000054]},"properties":{"ID":70,"TYPE":"Growth Centre","NAME":"Muradia Hat"}},
{"type":"Feature","geometry":{"type":"Point","coordinates":[89.09361707300008,22.442456884000023]},"properties":{"ID":70,"TYPE":"Growth Centre","NAME":"Kushlia Hat"}},
{"type":"Feature","geometry":{"type":"Point","coordinates":[91.73925645300005,22.438487559000066]},"properties":{"ID":70,"TYPE":"Growth Centre","NAME":"Madam Bibir Hat"}},
{"type":"Feature","geometry":{"type":"Point","coordinates":[89.13589984200007,22.447603969000056]},"properties":{"ID":70,"TYPE":"Growth Centre","NAME":"Bashtala"}},
{"type":"Feature","geometry":{"type":"Point","coordinates":[89.27283662200006,22.448899190000077]},"properties":{"ID":70,"TYPE":"Growth Centre","NAME":"Ghugrokati Hat"}},
{"type":"Feature","geometry":{"type":"Point","coordinates":[89.86240138300008,22.451784041000053]},"properties":{"ID":70,"TYPE":"Growth Centre","NAME":"Morrelganj Gc"}},
{"type":"Feature","geometry":{"type":"Point","coordinates":[90.81783738600006,22.45044927400005]},"properties":{"ID":70,"TYPE":"Growth Centre","NAME":"Shibpur  Khasher Hat"}},
{"type":"Feature","geometry":{"type":"Point","coordinates":[89.15834102100007,22.45044205000005]},"properties":{"ID":70,"TYPE":"Growth Centre","NAME":"Mohishkur Hat"}},
{"type":"Feature","geometry":{"type":"Point","coordinates":[91.82225952300007,22.441995142000053]},"properties":{"ID":70,"TYPE":"Growth Centre","NAME":"Chowdhury Hat"}},
{"type":"Feature","geometry":{"type":"Point","coordinates":[91.51636113600006,22.449383457000067]},"properties":{"ID":70,"TYPE":"Growth Centre","NAME":"FALESHER HAT"}},
{"type":"Feature","geometry":{"type":"Point","coordinates":[89.02641972500004,22.45469256900003]},"properties":{"ID":70,"TYPE":"Growth Centre","NAME":"Nazimganj Hat"}},
{"type":"Feature","geometry":{"type":"Point","coordinates":[89.33708771900007,22.456652447000067]},"properties":{"ID":70,"TYPE":"Growth Centre","NAME":"Gilabari Hat"}},
{"type":"Feature","geometry":{"type":"Point","coordinates":[90.28030559200005,22.460452185000065]},"properties":{"ID":70,"TYPE":"Growth Centre","NAME":"Kanthaltali Hat"}},
{"type":"Feature","geometry":{"type":"Point","coordinates":[89.43797936800007,22.463353091000045]},"properties":{"ID":70,"TYPE":"Growth Centre","NAME":"Nolian Hat"}},
{"type":"Feature","geometry":{"type":"Point","coordinates":[89.68639141400007,22.468683551000026]},"properties":{"ID":70,"TYPE":"Growth Centre","NAME":"Chater Hat"}},
{"type":"Feature","geometry":{"type":"Point","coordinates":[92.45935055900009,22.447845648000055]},"properties":{"ID":70,"TYPE":"Growth Centre","NAME":"Fokirchari Hat"}},
{"type":"Feature","geometry":{"type":"Point","coordinates":[90.18097840100006,22.47114608000004]},"properties":{"ID":70,"TYPE":"Growth Centre","NAME":"Aurabunia Hat"}},
{"type":"Feature","geometry":{"type":"Point","coordinates":[92.00814367200007,22.461150619000023]},"properties":{"ID":70,"TYPE":"Growth Centre","NAME":"Santir Hat"}},
{"type":"Feature","geometry":{"type":"Point","coordinates":[90.19982679400005,22.479201787000022]},"properties":{"ID":70,"TYPE":"Growth Centre","NAME":"Niamati Hat"}},
{"type":"Feature","geometry":{"type":"Point","coordinates":[92.13922058500003,22.463208973000064]},"properties":{"ID":70,"TYPE":"Growth Centre","NAME":"Raikhali Bazar"}},
{"type":"Feature","geometry":{"type":"Point","coordinates":[92.06394554300005,22.467055853000033]},"properties":{"ID":70,"TYPE":"Growth Centre","NAME":"Roajar (HQ)Hat"}},
{"type":"Feature","geometry":{"type":"Point","coordinates":[92.34685914600004,22.463242028000025]},"properties":{"ID":70,"TYPE":"Growth Centre","NAME":"Belaichhari Hat"}},
{"type":"Feature","geometry":{"type":"Point","coordinates":[90.06308059000008,22.485497287000044]},"properties":{"ID":70,"TYPE":"Growth Centre","NAME":"Bhandaria Hat"}},
{"type":"Feature","geometry":{"type":"Point","coordinates":[92.13344726600008,22.470420193000052]},"properties":{"ID":70,"TYPE":"Growth Centre","NAME":"Dovashi Bazar"}},
{"type":"Feature","geometry":{"type":"Point","coordinates":[90.80755868700004,22.47996493000005]},"properties":{"ID":70,"TYPE":"Growth Centre","NAME":"Mirzakalu Hat"}},
{"type":"Feature","geometry":{"type":"Point","coordinates":[91.96242526600008,22.47356787500007]},"properties":{"ID":70,"TYPE":"Growth Centre","NAME":"Gorishankar hat"}},
{"type":"Feature","geometry":{"type":"Point","coordinates":[89.64738220200007,22.487731722000035]},"properties":{"ID":70,"TYPE":"Growth Centre","NAME":"Mithakhali Hat"}},
{"type":"Feature","geometry":{"type":"Point","coordinates":[90.12677318500005,22.48839935700005]},"properties":{"ID":70,"TYPE":"Growth Centre","NAME":"Maliar Hat"}},
{"type":"Feature","geometry":{"type":"Point","coordinates":[90.74516734200006,22.489047293000056]},"properties":{"ID":70,"TYPE":"Growth Centre","NAME":"Borhangonj Hat"}},
{"type":"Feature","geometry":{"type":"Point","coordinates":[90.71799201700009,22.49348076800004]},"properties":{"ID":70,"TYPE":"Growth Centre","NAME":"Borhanuddin Hat"}},
{"type":"Feature","geometry":{"type":"Point","coordinates":[91.43484992400005,22.495621458000073]},"properties":{"ID":70,"TYPE":"Growth Centre","NAME":"SANDWIP TOWN BAZER"}},
{"type":"Feature","geometry":{"type":"Point","coordinates":[91.48551075500006,22.491570382000077]},"properties":{"ID":70,"TYPE":"Growth Centre","NAME":"BAKTER HAT"}},
{"type":"Feature","geometry":{"type":"Point","coordinates":[90.03883016900005,22.513367516000073]},"properties":{"ID":70,"TYPE":"Growth Centre","NAME":"Kapalir Hat"}},
{"type":"Feature","geometry":{"type":"Point","coordinates":[91.80769899800003,22.503684259000067]},"properties":{"ID":70,"TYPE":"Growth Centre","NAME":"Hathazari Bazar"}},
{"type":"Feature","geometry":{"type":"Point","coordinates":[90.15115631200007,22.516244718000053]},"properties":{"ID":70,"TYPE":"Growth Centre","NAME":"Putiakhali Mirer"}},
{"type":"Feature","geometry":{"type":"Point","coordinates":[89.40403842400008,22.515209205000076]},"properties":{"ID":70,"TYPE":"Growth Centre","NAME":"Garaikhali Hat"}},
{"type":"Feature","geometry":{"type":"Point","coordinates":[89.13191354000008,22.514229831000023]},"properties":{"ID":70,"TYPE":"Growth Centre","NAME":"Uzirpur Hat"}},
{"type":"Feature","geometry":{"type":"Point","coordinates":[89.02351556800005,22.51456362700003]},"properties":{"ID":70,"TYPE":"Growth Centre","NAME":"Nalta Hat"}},
{"type":"Feature","geometry":{"type":"Point","coordinates":[91.71271743800008,22.509891336000067]},"properties":{"ID":70,"TYPE":"Growth Centre","NAME":"Kumira Hat"}},
{"type":"Feature","geometry":{"type":"Point","coordinates":[90.58533191000004,22.52023093500003]},"properties":{"ID":70,"TYPE":"Growth Centre","NAME":"Mominpur Bazar"}},
{"type":"Feature","geometry":{"type":"Point","coordinates":[89.88694453000005,22.524959141000068]},"properties":{"ID":70,"TYPE":"Growth Centre","NAME":"Pollar Hat Gc"}},
{"type":"Feature","geometry":{"type":"Point","coordinates":[92.14303892800007,22.509270085000026]},"properties":{"ID":70,"TYPE":"Growth Centre","NAME":"Baraichari Wagga"}},
{"type":"Feature","geometry":{"type":"Point","coordinates":[89.57563052500007,22.52523943600005]},"properties":{"ID":70,"TYPE":"Growth Centre","NAME":"Kotakhali Hat"}},
{"type":"Feature","geometry":{"type":"Point","coordinates":[89.93464863300005,22.528838273000076]},"properties":{"ID":70,"TYPE":"Growth Centre","NAME":"Chingrakhali Gc"}},
{"type":"Feature","geometry":{"type":"Point","coordinates":[90.52730694100006,22.528595444000075]},"properties":{"ID":70,"TYPE":"Growth Centre","NAME":"Kalisuri Bazar"}},
{"type":"Feature","geometry":{"type":"Point","coordinates":[91.47551366100004,22.52222573800003]},"properties":{"ID":70,"TYPE":"Growth Centre","NAME":"NAZIR HAT"}},
{"type":"Feature","geometry":{"type":"Point","coordinates":[91.92808536800004,22.517232509000053]},"properties":{"ID":70,"TYPE":"Growth Centre","NAME":"Ramzan Ali Hat"}},
{"type":"Feature","geometry":{"type":"Point","coordinates":[90.47400050000005,22.53055481100006]},"properties":{"ID":70,"TYPE":"Growth Centre","NAME":"Baherchar Bazar"}},
{"type":"Feature","geometry":{"type":"Point","coordinates":[92.24919587600004,22.514236030000063]},"properties":{"ID":70,"TYPE":"Growth Centre","NAME":"Jibtali Bazar"}},
{"type":"Feature","geometry":{"type":"Point","coordinates":[89.48529705600004,22.533431420000056]},"properties":{"ID":70,"TYPE":"Growth Centre","NAME":"Kalinagar Hat"}},
{"type":"Feature","geometry":{"type":"Point","coordinates":[89.25325422600008,22.534620756000038]},"properties":{"ID":70,"TYPE":"Growth Centre","NAME":"Chandkhali Hat"}},
{"type":"Feature","geometry":{"type":"Point","coordinates":[90.67408218400004,22.536046630000044]},"properties":{"ID":70,"TYPE":"Growth Centre","NAME":"Khair Hat"}},
{"type":"Feature","geometry":{"type":"Point","coordinates":[90.34768783600003,22.53968440400007]},"properties":{"ID":70,"TYPE":"Growth Centre","NAME":"Bakergonj Hat"}},
{"type":"Feature","geometry":{"type":"Point","coordinates":[92.05671431100006,22.52995087900007]},"properties":{"ID":70,"TYPE":"Growth Centre","NAME":"Rajar Hat"}},
{"type":"Feature","geometry":{"type":"Point","coordinates":[92.30509927900005,22.526522186000022]},"properties":{"ID":70,"TYPE":"Growth Centre","NAME":"Khangrachari Hat"}},
{"type":"Feature","geometry":{"type":"Point","coordinates":[91.47814333200006,22.538266229000044]},"properties":{"ID":70,"TYPE":"Growth Centre","NAME":"GHATMAJIR HAT"}},
{"type":"Feature","geometry":{"type":"Point","coordinates":[89.17690693100008,22.54382362900003]},"properties":{"ID":70,"TYPE":"Growth Centre","NAME":"Assasuni Hat"}},
{"type":"Feature","geometry":{"type":"Point","coordinates":[89.23293721200008,22.54456062500003]},"properties":{"ID":70,"TYPE":"Growth Centre","NAME":"Bardal Hat"}},
{"type":"Feature","geometry":{"type":"Point","coordinates":[89.65463795400007,22.546497283000065]},"properties":{"ID":70,"TYPE":"Growth Centre","NAME":"Perikhali Gc"}},
{"type":"Feature","geometry":{"type":"Point","coordinates":[91.91729558600008,22.535985570000037]},"properties":{"ID":70,"TYPE":"Growth Centre","NAME":"Fakir Hat"}},
{"type":"Feature","geometry":{"type":"Point","coordinates":[88.96518356100006,22.552595057000076]},"properties":{"ID":70,"TYPE":"Growth Centre","NAME":"Debhata Hat"}},
{"type":"Feature","geometry":{"type":"Point","coordinates":[89.01085813700007,22.556127738000043]},"properties":{"ID":70,"TYPE":"Growth Centre","NAME":"Gazir Hat"}},
{"type":"Feature","geometry":{"type":"Point","coordinates":[90.52440041600005,22.559088773000042]},"properties":{"ID":70,"TYPE":"Growth Centre","NAME":"Gobindapur Hat"}},
{"type":"Feature","geometry":{"type":"Point","coordinates":[89.86793582100006,22.561164698000027]},"properties":{"ID":70,"TYPE":"Growth Centre","NAME":"Daibajnahati Gc"}},
{"type":"Feature","geometry":{"type":"Point","coordinates":[92.23588315700005,22.543688986000063]},"properties":{"ID":70,"TYPE":"Growth Centre","NAME":"Natun Bazar"}},
{"type":"Feature","geometry":{"type":"Point","coordinates":[89.78957422300005,22.56532506800005]},"properties":{"ID":70,"TYPE":"Growth Centre","NAME":"Herma  Gc"}},
{"type":"Feature","geometry":{"type":"Point","coordinates":[90.09219377800008,22.56730659300007]},"properties":{"ID":70,"TYPE":"Growth Centre","NAME":"Labubunia Hat"}},
{"type":"Feature","geometry":{"type":"Point","coordinates":[89.45972525200006,22.56945104700003]},"properties":{"ID":70,"TYPE":"Growth Centre","NAME":"Batbunia Hat"}},
{"type":"Feature","geometry":{"type":"Point","coordinates":[92.39732151700008,22.551398979000055]},"properties":{"ID":70,"TYPE":"Growth Centre","NAME":"Shilchari Hat"}},
{"type":"Feature","geometry":{"type":"Point","coordinates":[90.14731371400006,22.57447823800004]},"properties":{"ID":70,"TYPE":"Growth Centre","NAME":"Bagri Hat"}},
{"type":"Feature","geometry":{"type":"Point","coordinates":[90.34271609500007,22.575255351000067]},"properties":{"ID":70,"TYPE":"Growth Centre","NAME":"Boalia Hat"}},
{"type":"Feature","geometry":{"type":"Point","coordinates":[92.18337848400006,22.563653077000026]},"properties":{"ID":70,"TYPE":"Growth Centre","NAME":"Aholad"}},
{"type":"Feature","geometry":{"type":"Point","coordinates":[91.89019062500006,22.57089748800007]},"properties":{"ID":70,"TYPE":"Growth Centre","NAME":"Amir Hat"}},
{"type":"Feature","geometry":{"type":"Point","coordinates":[90.29504038200008,22.583707851000042]},"properties":{"ID":70,"TYPE":"Growth Centre","NAME":"Manpasa Hat"}},
{"type":"Feature","geometry":{"type":"Point","coordinates":[89.32386864800009,22.58487102600003]},"properties":{"ID":70,"TYPE":"Growth Centre","NAME":"Paikgacha Hat"}},
{"type":"Feature","geometry":{"type":"Point","coordinates":[90.74496245900008,22.587225010000054]},"properties":{"ID":70,"TYPE":"Growth Centre","NAME":"Guptaganj Hat"}},
{"type":"Feature","geometry":{"type":"Point","coordinates":[92.04632528500008,22.575543580000044]},"properties":{"ID":70,"TYPE":"Growth Centre","NAME":"Ranir Hat"}},
{"type":"Feature","geometry":{"type":"Point","coordinates":[89.75769247800008,22.59066465500007]},"properties":{"ID":70,"TYPE":"Growth Centre","NAME":"Kashimpur Bazar"}},
{"type":"Feature","geometry":{"type":"Point","coordinates":[89.70076036700004,22.59201487000007]},"properties":{"ID":70,"TYPE":"Growth Centre","NAME":"Gilatala Gc"}},
{"type":"Feature","geometry":{"type":"Point","coordinates":[91.86424251300008,22.581991480000056]},"properties":{"ID":70,"TYPE":"Growth Centre","NAME":"MOHAMMAD TOKIR HAT"}},
{"type":"Feature","geometry":{"type":"Point","coordinates":[89.51854327300003,22.597025031000044]},"properties":{"ID":70,"TYPE":"Growth Centre","NAME":"Chalna Hat"}},
{"type":"Feature","geometry":{"type":"Point","coordinates":[90.01573227500006,22.59794931600004]},"properties":{"ID":70,"TYPE":"Growth Centre","NAME":"Hularhat"}},
{"type":"Feature","geometry":{"type":"Point","coordinates":[90.01573227500006,22.59794931600004]},"properties":{"ID":70,"TYPE":"Growth Centre","NAME":"Hularhat"}},
{"type":"Feature","geometry":{"type":"Point","coordinates":[90.39154972800009,22.600681029000043]},"properties":{"ID":70,"TYPE":"Growth Centre","NAME":"Halta Bandar Hat"}},
{"type":"Feature","geometry":{"type":"Point","coordinates":[89.88940268900006,22.603252697000073]},"properties":{"ID":70,"TYPE":"Growth Centre","NAME":"Badhal Bazar"}},
{"type":"Feature","geometry":{"type":"Point","coordinates":[90.74048768300008,22.602121605000036]},"properties":{"ID":70,"TYPE":"Growth Centre","NAME":"Daulatkhan Hat"}},
{"type":"Feature","geometry":{"type":"Point","coordinates":[89.11220331000004,22.60202326600006]},"properties":{"ID":70,"TYPE":"Growth Centre","NAME":"Bangdha Hat"}},
{"type":"Feature","geometry":{"type":"Point","coordinates":[89.26532779800004,22.60472148300005]},"properties":{"ID":70,"TYPE":"Growth Centre","NAME":"Baka Hat"}},
{"type":"Feature","geometry":{"type":"Point","coordinates":[90.11681580500004,22.609514601000058]},"properties":{"ID":70,"TYPE":"Growth Centre","NAME":"Balarzore Hat"}},
{"type":"Feature","geometry":{"type":"Point","coordinates":[91.79594968000004,22.599326485000063]},"properties":{"ID":70,"TYPE":"Growth Centre","NAME":"Kathir Hat"}},
{"type":"Feature","geometry":{"type":"Point","coordinates":[91.67004877700003,22.605265990000078]},"properties":{"ID":70,"TYPE":"Growth Centre","NAME":"Fakir Hat"}},
{"type":"Feature","geometry":{"type":"Point","coordinates":[89.19209499300007,22.613175624000064]},"properties":{"ID":70,"TYPE":"Growth Centre","NAME":"Kadakati Hat"}},
{"type":"Feature","geometry":{"type":"Point","coordinates":[89.15272980600008,22.613121269000032]},"properties":{"ID":70,"TYPE":"Growth Centre","NAME":"Budhata Hat"}},
{"type":"Feature","geometry":{"type":"Point","coordinates":[90.72903804100008,22.614386050000064]},"properties":{"ID":70,"TYPE":"Growth Centre","NAME":"Radhaballab Hat"}},
{"type":"Feature","geometry":{"type":"Point","coordinates":[90.97411899300005,22.61615021500006]},"properties":{"ID":70,"TYPE":"Growth Centre","NAME":"Bibirhat G.c"}},
{"type":"Feature","geometry":{"type":"Point","coordinates":[89.00146951000005,22.61641008600003]},"properties":{"ID":70,"TYPE":"Growth Centre","NAME":"Parulia Hat"}},
{"type":"Feature","geometry":{"type":"Point","coordinates":[91.16526977500007,22.61576238600003]},"properties":{"ID":70,"TYPE":"Growth Centre","NAME":"Chamir Hat"}},
{"type":"Feature","geometry":{"type":"Point","coordinates":[92.10613548900005,22.608712543000024]},"properties":{"ID":70,"TYPE":"Growth Centre","NAME":"Ghagra Bazar"}},
{"type":"Feature","geometry":{"type":"Point","coordinates":[89.05024776100004,22.623053463000076]},"properties":{"ID":70,"TYPE":"Growth Centre","NAME":"Subaranabad Hat"}},
{"type":"Feature","geometry":{"type":"Point","coordinates":[90.46105398900005,22.627812574000075]},"properties":{"ID":70,"TYPE":"Growth Centre","NAME":"KamarKhali Hat"}},
{"type":"Feature","geometry":{"type":"Point","coordinates":[91.66129911000007,22.619174205000036]},"properties":{"ID":70,"TYPE":"Growth Centre","NAME":"Sitakunda (Mohanther )Hat"}},
{"type":"Feature","geometry":{"type":"Point","coordinates":[89.64926599600005,22.633449381000048]},"properties":{"ID":70,"TYPE":"Growth Centre","NAME":"Foyla Gc"}},
{"type":"Feature","geometry":{"type":"Point","coordinates":[90.64523211400007,22.634027342000024]},"properties":{"ID":70,"TYPE":"Growth Centre","NAME":"Gazaria Hat"}},
{"type":"Feature","geometry":{"type":"Point","coordinates":[89.70575280900005,22.63609123200007]},"properties":{"ID":70,"TYPE":"Growth Centre","NAME":"Chaksree Gc"}},
{"type":"Feature","geometry":{"type":"Point","coordinates":[90.27675255800006,22.636819424000066]},"properties":{"ID":70,"TYPE":"Growth Centre","NAME":"Nalchhiti K.M. H"}},
{"type":"Feature","geometry":{"type":"Point","coordinates":[90.42151350100005,22.637763457000062]},"properties":{"ID":70,"TYPE":"Growth Centre","NAME":"Choramuddi Miaba Hat"}},
{"type":"Feature","geometry":{"type":"Point","coordinates":[92.04175900000007,22.627244113000074]},"properties":{"ID":70,"TYPE":"Growth Centre","NAME":"Kawkhali Bazar"}},
{"type":"Feature","geometry":{"type":"Point","coordinates":[88.96025644300005,22.640094059000035]},"properties":{"ID":70,"TYPE":"Growth Centre","NAME":"Paddom Bazar"}},
{"type":"Feature","geometry":{"type":"Point","coordinates":[91.79470708100007,22.63472232600003]},"properties":{"ID":70,"TYPE":"Growth Centre","NAME":"NAZIRHAT"}},
{"type":"Feature","geometry":{"type":"Point","coordinates":[91.63218891400004,22.63802619100005]},"properties":{"ID":70,"TYPE":"Growth Centre","NAME":"Mirer Hat"}},
{"type":"Feature","geometry":{"type":"Point","coordinates":[89.43164223200006,22.64670214000006]},"properties":{"ID":70,"TYPE":"Growth Centre","NAME":"Baroaria Hat"}},
{"type":"Feature","geometry":{"type":"Point","coordinates":[89.88374486100008,22.650809799000058]},"properties":{"ID":70,"TYPE":"Growth Centre","NAME":"Kachua Bazar"}},
{"type":"Feature","geometry":{"type":"Point","coordinates":[90.96066018300007,22.648455316000025]},"properties":{"ID":70,"TYPE":"Growth Centre","NAME":"Ramdoil Bazar G.c"}},
{"type":"Feature","geometry":{"type":"Point","coordinates":[91.24955773200008,22.647028824000074]},"properties":{"ID":70,"TYPE":"Growth Centre","NAME":"Aktar Miar Hat"}},
{"type":"Feature","geometry":{"type":"Point","coordinates":[90.49593885700006,22.65521843600004]},"properties":{"ID":70,"TYPE":"Growth Centre","NAME":"Chandramohan hat"}},
{"type":"Feature","geometry":{"type":"Point","coordinates":[89.57550351500004,22.65715354200006]},"properties":{"ID":70,"TYPE":"Growth Centre","NAME":"Gauramva Gc"}},
{"type":"Feature","geometry":{"type":"Point","coordinates":[90.10015114700008,22.65973592100005]},"properties":{"ID":70,"TYPE":"Growth Centre","NAME":"Juluher Hat"}},
{"type":"Feature","geometry":{"type":"Point","coordinates":[90.91225615000008,22.660429857000054]},"properties":{"ID":70,"TYPE":"Growth Centre","NAME":"Char Alexandar G.c"}},
{"type":"Feature","geometry":{"type":"Point","coordinates":[89.95783102300004,22.668369806000044]},"properties":{"ID":70,"TYPE":"Growth Centre","NAME":"Panchpara Hat"}},
{"type":"Feature","geometry":{"type":"Point","coordinates":[89.95783102300004,22.668369806000044]},"properties":{"ID":70,"TYPE":"Growth Centre","NAME":"Panchpara Hat"}},
{"type":"Feature","geometry":{"type":"Point","coordinates":[89.62128238300005,22.668134891000022]},"properties":{"ID":70,"TYPE":"Growth Centre","NAME":"Bhanganpur Bazar"}},
{"type":"Feature","geometry":{"type":"Point","coordinates":[92.07481126500005,22.656028496000033]},"properties":{"ID":70,"TYPE":"Growth Centre","NAME":"Gillachari Bazar"}},
{"type":"Feature","geometry":{"type":"Point","coordinates":[89.69293828100007,22.671612104000076]},"properties":{"ID":70,"TYPE":"Growth Centre","NAME":"Poler Hat"}},
{"type":"Feature","geometry":{"type":"Point","coordinates":[91.09159345500007,22.66808458400004]},"properties":{"ID":70,"TYPE":"Growth Centre","NAME":"Atkaplia Hat"}},
{"type":"Feature","geometry":{"type":"Point","coordinates":[92.13971955900007,22.658380196000053]},"properties":{"ID":70,"TYPE":"Growth Centre","NAME":"Manikchari Hat"}},
{"type":"Feature","geometry":{"type":"Point","coordinates":[90.02789742300007,22.67690669600006]},"properties":{"ID":70,"TYPE":"Growth Centre","NAME":"Chandkati Hat"}},
{"type":"Feature","geometry":{"type":"Point","coordinates":[91.96190863400005,22.664146268000025]},"properties":{"ID":70,"TYPE":"Growth Centre","NAME":"Barmachari Bazar"}},
{"type":"Feature","geometry":{"type":"Point","coordinates":[90.29123389700004,22.680052104000026]},"properties":{"ID":70,"TYPE":"Growth Centre","NAME":"Amirabad Hat"}},
{"type":"Feature","geometry":{"type":"Point","coordinates":[92.34247053200005,22.663477981000028]},"properties":{"ID":70,"TYPE":"Growth Centre","NAME":"Bongogichari Hat"}},
{"type":"Feature","geometry":{"type":"Point","coordinates":[89.57399053400007,22.68313483700007]},"properties":{"ID":70,"TYPE":"Growth Centre","NAME":"Kutir Hat"}},
{"type":"Feature","geometry":{"type":"Point","coordinates":[92.39451770800008,22.66443914300004]},"properties":{"ID":70,"TYPE":"Growth Centre","NAME":"Zakka Bazar"}},
{"type":"Feature","geometry":{"type":"Point","coordinates":[89.30885864700008,22.68403997300004]},"properties":{"ID":70,"TYPE":"Growth Centre","NAME":"Kapilmuni Hat"}},
{"type":"Feature","geometry":{"type":"Point","coordinates":[91.62654958900004,22.679642939000075]},"properties":{"ID":70,"TYPE":"Growth Centre","NAME":"Boro Darogar Hat"}},
{"type":"Feature","geometry":{"type":"Point","coordinates":[90.46231378600004,22.696495501000072]},"properties":{"ID":70,"TYPE":"Growth Centre","NAME":"Shahiber Hat"}},
{"type":"Feature","geometry":{"type":"Point","coordinates":[91.79306833700008,22.68618832800007]},"properties":{"ID":70,"TYPE":"Growth Centre","NAME":"BIBIR HAT"}},
{"type":"Feature","geometry":{"type":"Point","coordinates":[89.99684568800006,22.698641207000037]},"properties":{"ID":70,"TYPE":"Growth Centre","NAME":"Sreeramkathi Hat"}},
{"type":"Feature","geometry":{"type":"Point","coordinates":[89.18768878000003,22.696915490000038]},"properties":{"ID":70,"TYPE":"Growth Centre","NAME":"Dalua Hat"}},
{"type":"Feature","geometry":{"type":"Point","coordinates":[90.91624916800004,22.69649319000007]},"properties":{"ID":70,"TYPE":"Growth Centre","NAME":"Zamider Hat"}},
{"type":"Feature","geometry":{"type":"Point","coordinates":[90.19875795400009,22.69995858300007]},"properties":{"ID":70,"TYPE":"Growth Centre","NAME":"Paziputhipara Ha"}},
{"type":"Feature","geometry":{"type":"Point","coordinates":[90.24113028100004,22.70198239800004]},"properties":{"ID":70,"TYPE":"Growth Centre","NAME":"Manpasha Hat"}},
{"type":"Feature","geometry":{"type":"Point","coordinates":[89.43684290800007,22.70264981200006]},"properties":{"ID":70,"TYPE":"Growth Centre","NAME":"Baniakhali Hat"}},
{"type":"Feature","geometry":{"type":"Point","coordinates":[90.59111346800006,22.70361563800003]},"properties":{"ID":70,"TYPE":"Growth Centre","NAME":"Bankar Hat"}},
{"type":"Feature","geometry":{"type":"Point","coordinates":[90.67861690400008,22.70973097700005]},"properties":{"ID":70,"TYPE":"Growth Centre","NAME":"Tulatali Hat"}},
{"type":"Feature","geometry":{"type":"Point","coordinates":[91.16746714600004,22.708161480000058]},"properties":{"ID":70,"TYPE":"Growth Centre","NAME":"Thanar Hat"}},
{"type":"Feature","geometry":{"type":"Point","coordinates":[89.82031943900006,22.71371806700006]},"properties":{"ID":70,"TYPE":"Growth Centre","NAME":"Kandapara Bazar"}},
{"type":"Feature","geometry":{"type":"Point","coordinates":[89.76303286400008,22.716300732000036]},"properties":{"ID":70,"TYPE":"Growth Centre","NAME":"Jatrapur Bazar"}},
{"type":"Feature","geometry":{"type":"Point","coordinates":[89.26174357500008,22.715208974000063]},"properties":{"ID":70,"TYPE":"Growth Centre","NAME":"Jethua Hat"}},
{"type":"Feature","geometry":{"type":"Point","coordinates":[91.57011160900004,22.70938878000004]},"properties":{"ID":70,"TYPE":"Growth Centre","NAME":"BHORER BAZAR"}},
{"type":"Feature","geometry":{"type":"Point","coordinates":[90.60331239400006,22.719566995000037]},"properties":{"ID":70,"TYPE":"Growth Centre","NAME":"Bagar Hat"}},
{"type":"Feature","geometry":{"type":"Point","coordinates":[89.89324448100007,22.721760965000044]},"properties":{"ID":70,"TYPE":"Growth Centre","NAME":"Gazalia Bazar"}},
{"type":"Feature","geometry":{"type":"Point","coordinates":[90.29110078300005,22.729657275000022]},"properties":{"ID":70,"TYPE":"Growth Centre","NAME":"Basur Hat"}},
{"type":"Feature","geometry":{"type":"Point","coordinates":[90.21254416400006,22.730174886000043]},"properties":{"ID":70,"TYPE":"Growth Centre","NAME":"Shibganj Hat"}},
{"type":"Feature","geometry":{"type":"Point","coordinates":[91.60752192800004,22.72526816800007]},"properties":{"ID":70,"TYPE":"Growth Centre","NAME":"HADI FAKIR HAT"}},
{"type":"Feature","geometry":{"type":"Point","coordinates":[90.18448897500008,22.73796748500007]},"properties":{"ID":70,"TYPE":"Growth Centre","NAME":"Atghar GC"}},
{"type":"Feature","geometry":{"type":"Point","coordinates":[89.52096252800004,22.739304463000053]},"properties":{"ID":70,"TYPE":"Growth Centre","NAME":"Hatbati Hat"}},
{"type":"Feature","geometry":{"type":"Point","coordinates":[92.08809698800007,22.726121574000047]},"properties":{"ID":70,"TYPE":"Growth Centre","NAME":"Kutukchari Hut"}},
{"type":"Feature","geometry":{"type":"Point","coordinates":[90.87045440800006,22.741749286000072]},"properties":{"ID":70,"TYPE":"Growth Centre","NAME":"Hazir Hat"}},
{"type":"Feature","geometry":{"type":"Point","coordinates":[92.39163487500008,22.724690873000043]},"properties":{"ID":70,"TYPE":"Growth Centre","NAME":"Barkal Bazar"}},
{"type":"Feature","geometry":{"type":"Point","coordinates":[89.91724515200008,22.745859119000045]},"properties":{"ID":70,"TYPE":"Growth Centre","NAME":"Kaligonj Bazar"}},
{"type":"Feature","geometry":{"type":"Point","coordinates":[89.63222600300008,22.747739378000063]},"properties":{"ID":70,"TYPE":"Growth Centre","NAME":"Lockpur Bazar"}},
{"type":"Feature","geometry":{"type":"Point","coordinates":[90.10728871200007,22.748569974000077]},"properties":{"ID":70,"TYPE":"Growth Centre","NAME":"Jagonnathkathi GC"}},
{"type":"Feature","geometry":{"type":"Point","coordinates":[90.46000471000008,22.747908842000072]},"properties":{"ID":70,"TYPE":"Growth Centre","NAME":"Bukainagar hat"}},
{"type":"Feature","geometry":{"type":"Point","coordinates":[89.25866246200007,22.748969139000053]},"properties":{"ID":70,"TYPE":"Growth Centre","NAME":"Tala Hat"}},
{"type":"Feature","geometry":{"type":"Point","coordinates":[88.94826980000005,22.74806827200007]},"properties":{"ID":70,"TYPE":"Growth Centre","NAME":"Kathandah Hat"}},
{"type":"Feature","geometry":{"type":"Point","coordinates":[90.64214212000007,22.751562813000078]},"properties":{"ID":70,"TYPE":"Growth Centre","NAME":"Illisha Hat"}},
{"type":"Feature","geometry":{"type":"Point","coordinates":[89.90136488100006,22.75521315800006]},"properties":{"ID":70,"TYPE":"Growth Centre","NAME":"Kasher Bazar"}},
{"type":"Feature","geometry":{"type":"Point","coordinates":[91.06699917100008,22.75279324400003]},"properties":{"ID":70,"TYPE":"Growth Centre","NAME":"Uttar Wapda Hat"}},
{"type":"Feature","geometry":{"type":"Point","coordinates":[90.39138439500005,22.758104554000056]},"properties":{"ID":70,"TYPE":"Growth Centre","NAME":"Shahistabad Hat"}},
{"type":"Feature","geometry":{"type":"Point","coordinates":[90.27821124300004,22.759586022000065]},"properties":{"ID":70,"TYPE":"Growth Centre","NAME":"Maddobpaja Hat"}},
{"type":"Feature","geometry":{"type":"Point","coordinates":[89.95665738500009,22.76092946400007]},"properties":{"ID":70,"TYPE":"Growth Centre","NAME":"Dighirzan Hat"}},
{"type":"Feature","geometry":{"type":"Point","coordinates":[90.19157863700008,22.761871210000038]},"properties":{"ID":70,"TYPE":"Growth Centre","NAME":"Birmahal Hat"}},
{"type":"Feature","geometry":{"type":"Point","coordinates":[89.02044812300005,22.759853003000046]},"properties":{"ID":70,"TYPE":"Growth Centre","NAME":"Abader Hat"}},
{"type":"Feature","geometry":{"type":"Point","coordinates":[90.52036770700005,22.764389580000056]},"properties":{"ID":70,"TYPE":"Growth Centre","NAME":"Langutia Hat"}},
{"type":"Feature","geometry":{"type":"Point","coordinates":[91.73460250700003,22.75525890600005]},"properties":{"ID":70,"TYPE":"Growth Centre","NAME":"KAZIR HAT"}},
{"type":"Feature","geometry":{"type":"Point","coordinates":[89.16868852600004,22.764358902000026]},"properties":{"ID":70,"TYPE":"Growth Centre","NAME":"Pakelghata Hat"}},
{"type":"Feature","geometry":{"type":"Point","coordinates":[90.87004043700006,22.768757226000048]},"properties":{"ID":70,"TYPE":"Growth Centre","NAME":"Char Lawrence Khaser Hat"}},
{"type":"Feature","geometry":{"type":"Point","coordinates":[89.71529286200007,22.772679375000052]},"properties":{"ID":70,"TYPE":"Growth Centre","NAME":"Fakirhat Bazar"}},
{"type":"Feature","geometry":{"type":"Point","coordinates":[90.31541084100007,22.779886883000074]},"properties":{"ID":70,"TYPE":"Growth Centre","NAME":"Mohanganj Hat"}},
{"type":"Feature","geometry":{"type":"Point","coordinates":[88.98760643900005,22.778089512000065]},"properties":{"ID":70,"TYPE":"Growth Centre","NAME":"Banshdaha Hat"}},
{"type":"Feature","geometry":{"type":"Point","coordinates":[90.16347874500008,22.784222509000074]},"properties":{"ID":70,"TYPE":"Growth Centre","NAME":"BANARIPARA HAT"}},
{"type":"Feature","geometry":{"type":"Point","coordinates":[91.57525778000007,22.777716029000032]},"properties":{"ID":70,"TYPE":"Growth Centre","NAME":"MIRASRAI HAT"}},
{"type":"Feature","geometry":{"type":"Point","coordinates":[89.88301000500007,22.786732461000042]},"properties":{"ID":70,"TYPE":"Growth Centre","NAME":"Chitalmari Hat"}},
{"type":"Feature","geometry":{"type":"Point","coordinates":[89.27667145800007,22.787281285000063]},"properties":{"ID":70,"TYPE":"Growth Centre","NAME":"Khajurbunia Hat"}},
{"type":"Feature","geometry":{"type":"Point","coordinates":[89.48748008900003,22.79189473100007]},"properties":{"ID":70,"TYPE":"Growth Centre","NAME":"Koyer Hat"}},
{"type":"Feature","geometry":{"type":"Point","coordinates":[92.09383136400004,22.777336330000026]},"properties":{"ID":70,"TYPE":"Growth Centre","NAME":"Burighat Hat"}},
{"type":"Feature","geometry":{"type":"Point","coordinates":[89.67766354500009,22.79428454500004]},"properties":{"ID":70,"TYPE":"Growth Centre","NAME":"Mansha Bazar"}},
{"type":"Feature","geometry":{"type":"Point","coordinates":[92.03419195600009,22.780831212000066]},"properties":{"ID":70,"TYPE":"Growth Centre","NAME":"Ghilachari Hat"}},
{"type":"Feature","geometry":{"type":"Point","coordinates":[91.79995134500007,22.786403089000032]},"properties":{"ID":70,"TYPE":"Growth Centre","NAME":"Garitana Bazar"}},
{"type":"Feature","geometry":{"type":"Point","coordinates":[89.25986831400007,22.79840610100007]},"properties":{"ID":70,"TYPE":"Growth Centre","NAME":"Jatpur Hat"}},
{"type":"Feature","geometry":{"type":"Point","coordinates":[91.03264037900004,22.800068508000038]},"properties":{"ID":70,"TYPE":"Growth Centre","NAME":"Karomullah Hat"}},
{"type":"Feature","geometry":{"type":"Point","coordinates":[91.51693101600006,22.79684751700006]},"properties":{"ID":70,"TYPE":"Growth Centre","NAME":"BAMAN SUNDARDAROGAR HAT"}},
{"type":"Feature","geometry":{"type":"Point","coordinates":[90.04545830600006,22.80596843400008]},"properties":{"ID":70,"TYPE":"Growth Centre","NAME":"Baithakatha Hat"}},
{"type":"Feature","geometry":{"type":"Point","coordinates":[91.91286416400004,22.793618889000072]},"properties":{"ID":70,"TYPE":"Growth Centre","NAME":"Laxmichari Bazar"}},
{"type":"Feature","geometry":{"type":"Point","coordinates":[89.41735801400006,22.808116191000067]},"properties":{"ID":70,"TYPE":"Growth Centre","NAME":"Dumuria"}},
{"type":"Feature","geometry":{"type":"Point","coordinates":[89.64460238200007,22.81194590800004]},"properties":{"ID":70,"TYPE":"Growth Centre","NAME":"Alaipur Hat"}},
{"type":"Feature","geometry":{"type":"Point","coordinates":[89.03835510000005,22.81382863500005]},"properties":{"ID":70,"TYPE":"Growth Centre","NAME":"Jhaudanga Hat"}},
{"type":"Feature","geometry":{"type":"Point","coordinates":[89.18058782900005,22.816136880000045]},"properties":{"ID":70,"TYPE":"Growth Centre","NAME":"Chingra Hat"}},
{"type":"Feature","geometry":{"type":"Point","coordinates":[90.25962178800006,22.819087212000056]},"properties":{"ID":70,"TYPE":"Growth Centre","NAME":"Kalir Hat"}},
{"type":"Feature","geometry":{"type":"Point","coordinates":[90.32477798600007,22.81930309300003]},"properties":{"ID":70,"TYPE":"Growth Centre","NAME":"Babuganj Bazar"}},
{"type":"Feature","geometry":{"type":"Point","coordinates":[90.66513723400004,22.81826862400004]},"properties":{"ID":70,"TYPE":"Growth Centre","NAME":"Majhir Hat"}},
{"type":"Feature","geometry":{"type":"Point","coordinates":[90.86725697400004,22.81749765400008]},"properties":{"ID":70,"TYPE":"Growth Centre","NAME":"Torabganj Bazarg.c"}},
{"type":"Feature","geometry":{"type":"Point","coordinates":[91.24959461900005,22.815435269000034]},"properties":{"ID":70,"TYPE":"Growth Centre","NAME":"Purbo-chaprashir Hat"}},
{"type":"Feature","geometry":{"type":"Point","coordinates":[89.93815251200004,22.821887421000042]},"properties":{"ID":70,"TYPE":"Growth Centre","NAME":"Mathabhanga Hat"}},
{"type":"Feature","geometry":{"type":"Point","coordinates":[89.57248879200006,22.822559996000052]},"properties":{"ID":70,"TYPE":"Growth Centre","NAME":"Sener Bazar"}},
{"type":"Feature","geometry":{"type":"Point","coordinates":[89.35671561100008,22.822979451000037]},"properties":{"ID":70,"TYPE":"Growth Centre","NAME":"Kharnia Hat"}},
{"type":"Feature","geometry":{"type":"Point","coordinates":[91.23802643500005,22.819084184000076]},"properties":{"ID":70,"TYPE":"Growth Centre","NAME":"Chaprashir Hat"}},
{"type":"Feature","geometry":{"type":"Point","coordinates":[91.28955958100005,22.819489562000058]},"properties":{"ID":70,"TYPE":"Growth Centre","NAME":"Tal Mohammader Hat"}},
{"type":"Feature","geometry":{"type":"Point","coordinates":[90.52646951300005,22.82554177800006]},"properties":{"ID":70,"TYPE":"Growth Centre","NAME":"Patherhat"}},
{"type":"Feature","geometry":{"type":"Point","coordinates":[92.04363227500005,22.815747574000056]},"properties":{"ID":70,"TYPE":"Growth Centre","NAME":"Bogachari Hat"}},
{"type":"Feature","geometry":{"type":"Point","coordinates":[91.83599544900005,22.825469206000037]},"properties":{"ID":70,"TYPE":"Growth Centre","NAME":"Tintori Bazar"}},
{"type":"Feature","geometry":{"type":"Point","coordinates":[89.15385198000007,22.835556516000054]},"properties":{"ID":70,"TYPE":"Growth Centre","NAME":"Boga Bazar"}},
{"type":"Feature","geometry":{"type":"Point","coordinates":[90.17262875600005,22.83876987900004]},"properties":{"ID":70,"TYPE":"Growth Centre","NAME":"MIRER HAT"}},
{"type":"Feature","geometry":{"type":"Point","coordinates":[89.85630694100007,22.84034920600004]},"properties":{"ID":70,"TYPE":"Growth Centre","NAME":"Nalua Bazar"}},
{"type":"Feature","geometry":{"type":"Point","coordinates":[89.30067518300007,22.83871720800005]},"properties":{"ID":70,"TYPE":"Growth Centre","NAME":"Chuknagar Hat"}},
{"type":"Feature","geometry":{"type":"Point","coordinates":[89.57851905500007,22.84102596300005]},"properties":{"ID":70,"TYPE":"Growth Centre","NAME":"Amtala Hat"}},
{"type":"Feature","geometry":{"type":"Point","coordinates":[90.44698713900004,22.844513482000025]},"properties":{"ID":70,"TYPE":"Growth Centre","NAME":"Bankerhat"}},
{"type":"Feature","geometry":{"type":"Point","coordinates":[91.50216008800004,22.839109896000025]},"properties":{"ID":70,"TYPE":"Growth Centre","NAME":"ABUR HAT"}},
{"type":"Feature","geometry":{"type":"Point","coordinates":[89.94431240400007,22.84904923700003]},"properties":{"ID":70,"TYPE":"Growth Centre","NAME":"Banshbaria Hat"}},
{"type":"Feature","geometry":{"type":"Point","coordinates":[90.10627844600003,22.850760921000074]},"properties":{"ID":70,"TYPE":"Growth Centre","NAME":"Harta Hat"}},
{"type":"Feature","geometry":{"type":"Point","coordinates":[92.09643093800008,22.837243011000055]},"properties":{"ID":70,"TYPE":"Growth Centre","NAME":"Nanerchar Hat"}},
{"type":"Feature","geometry":{"type":"Point","coordinates":[90.61250429700004,22.851601609000056]},"properties":{"ID":70,"TYPE":"Growth Centre","NAME":"Ulania Hat"}},
{"type":"Feature","geometry":{"type":"Point","coordinates":[91.39563445400006,22.848784911000052]},"properties":{"ID":70,"TYPE":"Growth Centre","NAME":"Sonagazi Gc"}},
{"type":"Feature","geometry":{"type":"Point","coordinates":[91.84029782200008,22.846582073000036]},"properties":{"ID":70,"TYPE":"Growth Centre","NAME":"Manikchari Raj Bazar Hat"}},
{"type":"Feature","geometry":{"type":"Point","coordinates":[90.43776819800007,22.85872135900007]},"properties":{"ID":70,"TYPE":"Growth Centre","NAME":"Kazir Hat"}},
{"type":"Feature","geometry":{"type":"Point","coordinates":[90.05329074300005,22.860262969000075]},"properties":{"ID":70,"TYPE":"Growth Centre","NAME":"Chowmohona hat"}},
{"type":"Feature","geometry":{"type":"Point","coordinates":[89.04368359700004,22.85869216800006]},"properties":{"ID":70,"TYPE":"Growth Centre","NAME":"Kolaroa Hat"}},
{"type":"Feature","geometry":{"type":"Point","coordinates":[89.66100185900007,22.863437528000077]},"properties":{"ID":70,"TYPE":"Growth Centre","NAME":"Shekpura Hat"}},
{"type":"Feature","geometry":{"type":"Point","coordinates":[89.40873813900004,22.86574603100007]},"properties":{"ID":70,"TYPE":"Growth Centre","NAME":"Shahpur Hat"}},
{"type":"Feature","geometry":{"type":"Point","coordinates":[90.38944792900008,22.87037243900005]},"properties":{"ID":70,"TYPE":"Growth Centre","NAME":"Khasher Hat"}},
{"type":"Feature","geometry":{"type":"Point","coordinates":[91.93252216500008,22.85845751100004]},"properties":{"ID":70,"TYPE":"Growth Centre","NAME":"Dullyatali Bazar"}},
{"type":"Feature","geometry":{"type":"Point","coordinates":[89.54774976700008,22.871603004000065]},"properties":{"ID":70,"TYPE":"Growth Centre","NAME":"Senhati Hat"}},
{"type":"Feature","geometry":{"type":"Point","coordinates":[89.71952546700004,22.875387595000063]},"properties":{"ID":70,"TYPE":"Growth Centre","NAME":"Gangni Bazar"}},
{"type":"Feature","geometry":{"type":"Point","coordinates":[89.89301056300008,22.876510728000028]},"properties":{"ID":70,"TYPE":"Growth Centre","NAME":"Chinguri Bazar"}},
{"type":"Feature","geometry":{"type":"Point","coordinates":[91.28089256100009,22.872681658000033]},"properties":{"ID":70,"TYPE":"Growth Centre","NAME":"Bashur Hat"}},
{"type":"Feature","geometry":{"type":"Point","coordinates":[91.41467410400008,22.87213960100007]},"properties":{"ID":70,"TYPE":"Growth Centre","NAME":"Reazuddin Munsir Hat"}},
{"type":"Feature","geometry":{"type":"Point","coordinates":[88.98727637300004,22.87668099600006]},"properties":{"ID":70,"TYPE":"Growth Centre","NAME":"Sonabaria Hat"}},
{"type":"Feature","geometry":{"type":"Point","coordinates":[89.55813207100005,22.884121117000063]},"properties":{"ID":70,"TYPE":"Growth Centre","NAME":"Pother Hat"}},
{"type":"Feature","geometry":{"type":"Point","coordinates":[89.68353669400005,22.88499607800003]},"properties":{"ID":70,"TYPE":"Growth Centre","NAME":"Sagladha Hat"}},
{"type":"Feature","geometry":{"type":"Point","coordinates":[90.85751168400003,22.88376340800005]},"properties":{"ID":70,"TYPE":"Growth Centre","NAME":"Bhowaniganj  Bazar"}},
{"type":"Feature","geometry":{"type":"Point","coordinates":[89.90017209200005,22.88743203300004]},"properties":{"ID":70,"TYPE":"Growth Centre","NAME":"Patgati Hat"}},
{"type":"Feature","geometry":{"type":"Point","coordinates":[92.39069603100006,22.869221165000056]},"properties":{"ID":70,"TYPE":"Growth Centre","NAME":"Bhushan Chara Bazar"}},
{"type":"Feature","geometry":{"type":"Point","coordinates":[90.95261034700007,22.888414544000057]},"properties":{"ID":70,"TYPE":"Growth Centre","NAME":"Dasher Hat"}},
{"type":"Feature","geometry":{"type":"Point","coordinates":[89.73025456200008,22.891547418000073]},"properties":{"ID":70,"TYPE":"Growth Centre","NAME":"Nagorkandi Bazar"}},
{"type":"Feature","geometry":{"type":"Point","coordinates":[91.06020113200003,22.887860529000022]},"properties":{"ID":70,"TYPE":"Growth Centre","NAME":"Rajganj Hat"}},
{"type":"Feature","geometry":{"type":"Point","coordinates":[90.19901338800008,22.892521556000077]},"properties":{"ID":70,"TYPE":"Growth Centre","NAME":"Dhamura Hat"}},
{"type":"Feature","geometry":{"type":"Point","coordinates":[89.37593818000005,22.895485058000077]},"properties":{"ID":70,"TYPE":"Growth Centre","NAME":"Boruna Hat"}},
{"type":"Feature","geometry":{"type":"Point","coordinates":[90.30649759900007,22.898287739000068]},"properties":{"ID":70,"TYPE":"Growth Centre","NAME":"Agarpur Hat"}},
{"type":"Feature","geometry":{"type":"Point","coordinates":[91.68123967200006,22.889202469000054]},"properties":{"ID":70,"TYPE":"Growth Centre","NAME":"HEAKO BAZER"}},
{"type":"Feature","geometry":{"type":"Point","coordinates":[91.01346042100005,22.89691752600004]},"properties":{"ID":70,"TYPE":"Growth Centre","NAME":"Chhayani Hat"}},
{"type":"Feature","geometry":{"type":"Point","coordinates":[91.51922860000008,22.894626163000055]},"properties":{"ID":70,"TYPE":"Growth Centre","NAME":"Santir Hat"}},
{"type":"Feature","geometry":{"type":"Point","coordinates":[91.21060423400007,22.899975553000047]},"properties":{"ID":70,"TYPE":"Growth Centre","NAME":"Kutuber Hat"}},
{"type":"Feature","geometry":{"type":"Point","coordinates":[90.06789970100004,22.90543738300005]},"properties":{"ID":70,"TYPE":"Growth Centre","NAME":"Satla Hat"}},
{"type":"Feature","geometry":{"type":"Point","coordinates":[91.31360588600006,22.901210518000028]},"properties":{"ID":70,"TYPE":"Growth Centre","NAME":"Chowdhury Hat"}},
{"type":"Feature","geometry":{"type":"Point","coordinates":[91.27646962300008,22.902101187000028]},"properties":{"ID":70,"TYPE":"Growth Centre","NAME":"Dudmukha Bazar"}},
{"type":"Feature","geometry":{"type":"Point","coordinates":[91.40040949900003,22.90133196000005]},"properties":{"ID":70,"TYPE":"Growth Centre","NAME":"Baktarmunsir Hat"}},
{"type":"Feature","geometry":{"type":"Point","coordinates":[89.32563243800007,22.90676050600007]},"properties":{"ID":70,"TYPE":"Growth Centre","NAME":"Katakhali Hat"}},
{"type":"Feature","geometry":{"type":"Point","coordinates":[89.22297378900004,22.907430266000063]},"properties":{"ID":70,"TYPE":"Growth Centre","NAME":"Keshabpur Hat"}},
{"type":"Feature","geometry":{"type":"Point","coordinates":[90.25070757900005,22.91065708900004]},"properties":{"ID":70,"TYPE":"Growth Centre","NAME":"Batazor Hat"}},
{"type":"Feature","geometry":{"type":"Point","coordinates":[88.93398436800004,22.91028043600005]},"properties":{"ID":70,"TYPE":"Growth Centre","NAME":"Chandanpur Hat"}},
{"type":"Feature","geometry":{"type":"Point","coordinates":[90.30554230500007,22.915572841000028]},"properties":{"ID":70,"TYPE":"Growth Centre","NAME":"Sarikal Hat"}},
{"type":"Feature","geometry":{"type":"Point","coordinates":[92.21631836900008,22.899138635000043]},"properties":{"ID":70,"TYPE":"Growth Centre","NAME":"Kattali Hat"}},
{"type":"Feature","geometry":{"type":"Point","coordinates":[90.41819544000003,22.918205726000053]},"properties":{"ID":70,"TYPE":"Growth Centre","NAME":"Muladi  Bandar Hat"}},
{"type":"Feature","geometry":{"type":"Point","coordinates":[90.16163869100006,22.920177101000036]},"properties":{"ID":70,"TYPE":"Growth Centre","NAME":"Mollapara Shahiber Hat"}},
{"type":"Feature","geometry":{"type":"Point","coordinates":[92.39539957800008,22.900133750000066]},"properties":{"ID":70,"TYPE":"Growth Centre","NAME":"Choto Horina Bazar"}},
{"type":"Feature","geometry":{"type":"Point","coordinates":[89.72749936100007,22.921749593000072]},"properties":{"ID":70,"TYPE":"Growth Centre","NAME":"Patla Hat"}},
{"type":"Feature","geometry":{"type":"Point","coordinates":[90.00482565100003,22.92535562200004]},"properties":{"ID":70,"TYPE":"Growth Centre","NAME":"Dharabashail Hat"}},
{"type":"Feature","geometry":{"type":"Point","coordinates":[89.09720771200006,22.92300731800003]},"properties":{"ID":70,"TYPE":"Growth Centre","NAME":"Khordo Hat"}},
{"type":"Feature","geometry":{"type":"Point","coordinates":[89.80511471900007,22.927297683000063]},"properties":{"ID":70,"TYPE":"Growth Centre","NAME":"Garfa Bazar"}},
{"type":"Feature","geometry":{"type":"Point","coordinates":[89.40417357100006,22.930011248000028]},"properties":{"ID":70,"TYPE":"Growth Centre","NAME":"Jamira Hat"}},
{"type":"Feature","geometry":{"type":"Point","coordinates":[89.67081737000007,22.93614359000003]},"properties":{"ID":70,"TYPE":"Growth Centre","NAME":"Katinga Hat"}},
{"type":"Feature","geometry":{"type":"Point","coordinates":[91.49968119200008,22.931049389000066]},"properties":{"ID":70,"TYPE":"Growth Centre","NAME":"K.m Gc"}},
{"type":"Feature","geometry":{"type":"Point","coordinates":[90.07995162300006,22.939796022000053]},"properties":{"ID":70,"TYPE":"Growth Centre","NAME":"Bagdhar Hat"}},
{"type":"Feature","geometry":{"type":"Point","coordinates":[91.37912903500006,22.933143572000063]},"properties":{"ID":70,"TYPE":"Growth Centre","NAME":"Kutir Hat"}},
{"type":"Feature","geometry":{"type":"Point","coordinates":[89.48632629600007,22.94171344500006]},"properties":{"ID":70,"TYPE":"Growth Centre","NAME":"Easterngare Hat"}},
{"type":"Feature","geometry":{"type":"Point","coordinates":[91.30966547200006,22.93787104200004]},"properties":{"ID":70,"TYPE":"Growth Centre","NAME":"Daganbhuiyan Gc"}},
{"type":"Feature","geometry":{"type":"Point","coordinates":[90.91345911400003,22.941943953000077]},"properties":{"ID":70,"TYPE":"Growth Centre","NAME":"Mandari Bazar G.c"}},
{"type":"Feature","geometry":{"type":"Point","coordinates":[89.58080254000004,22.94580222700006]},"properties":{"ID":70,"TYPE":"Growth Centre","NAME":"Majhirgati Hat"}},
{"type":"Feature","geometry":{"type":"Point","coordinates":[92.03097923300004,22.931832546000066]},"properties":{"ID":70,"TYPE":"Growth Centre","NAME":"Mahalchari Bazar"}},
{"type":"Feature","geometry":{"type":"Point","coordinates":[89.49232516600006,22.947357930000067]},"properties":{"ID":70,"TYPE":"Growth Centre","NAME":"Amtali Bazar"}},
{"type":"Feature","geometry":{"type":"Point","coordinates":[91.12674945400005,22.94480837900005]},"properties":{"ID":70,"TYPE":"Growth Centre","NAME":"Choumuhani Hat"}},
{"type":"Feature","geometry":{"type":"Point","coordinates":[90.99581318500003,22.94740173200006]},"properties":{"ID":70,"TYPE":"Growth Centre","NAME":"Chandragonj G.c"}},
{"type":"Feature","geometry":{"type":"Point","coordinates":[91.73134579700007,22.941736121000076]},"properties":{"ID":70,"TYPE":"Growth Centre","NAME":"Khagrabil Bazar"}},
{"type":"Feature","geometry":{"type":"Point","coordinates":[89.87141886100005,22.955060933000027]},"properties":{"ID":70,"TYPE":"Growth Centre","NAME":"Kushli Hat"}},
{"type":"Feature","geometry":{"type":"Point","coordinates":[89.23336845800009,22.953203381000037]},"properties":{"ID":70,"TYPE":"Growth Centre","NAME":"Chinatole Hat"}},
{"type":"Feature","geometry":{"type":"Point","coordinates":[88.98818856800006,22.95174266400005]},"properties":{"ID":70,"TYPE":"Growth Centre","NAME":"Baghara Hat"}},
{"type":"Feature","geometry":{"type":"Point","coordinates":[91.18663701100007,22.95222452300004]},"properties":{"ID":70,"TYPE":"Growth Centre","NAME":"Jamidar Hat"}},
{"type":"Feature","geometry":{"type":"Point","coordinates":[90.35757786400006,22.957988775000047]},"properties":{"ID":70,"TYPE":"Growth Centre","NAME":"Nazirpur Hat"}},
{"type":"Feature","geometry":{"type":"Point","coordinates":[91.44272994900007,22.95121573600005]},"properties":{"ID":70,"TYPE":"Growth Centre","NAME":"Lemua Gc"}},
{"type":"Feature","geometry":{"type":"Point","coordinates":[91.21734060800009,22.954153855000072]},"properties":{"ID":70,"TYPE":"Growth Centre","NAME":"Samir Munshir Hat"}},
{"type":"Feature","geometry":{"type":"Point","coordinates":[89.32519776300006,22.96855245300003]},"properties":{"ID":70,"TYPE":"Growth Centre","NAME":"Nehal Pur Hat"}},
{"type":"Feature","geometry":{"type":"Point","coordinates":[90.95486429400006,22.96882362100007]},"properties":{"ID":70,"TYPE":"Growth Centre","NAME":"Chowpolli  Bazar G.c"}},
{"type":"Feature","geometry":{"type":"Point","coordinates":[89.87571851400008,22.972961696000027]},"properties":{"ID":70,"TYPE":"Growth Centre","NAME":"Silna Hat"}},
{"type":"Feature","geometry":{"type":"Point","coordinates":[89.47801966500003,22.97399334200003]},"properties":{"ID":70,"TYPE":"Growth Centre","NAME":"Phultala Hat"}},
{"type":"Feature","geometry":{"type":"Point","coordinates":[91.80201681300008,22.964689082000064]},"properties":{"ID":70,"TYPE":"Growth Centre","NAME":"Nakaba Bazar"}},
{"type":"Feature","geometry":{"type":"Point","coordinates":[90.23294366500005,22.97620692600003]},"properties":{"ID":70,"TYPE":"Growth Centre","NAME":"Gournadibandar Hat"}},
{"type":"Feature","geometry":{"type":"Point","coordinates":[90.08580858900007,22.97800486600005]},"properties":{"ID":70,"TYPE":"Growth Centre","NAME":"Paisar Hat"}},
{"type":"Feature","geometry":{"type":"Point","coordinates":[90.79525564800008,22.97751965200007]},"properties":{"ID":70,"TYPE":"Growth Centre","NAME":"Dalalbazer G.c"}},
{"type":"Feature","geometry":{"type":"Point","coordinates":[90.30601061200008,22.980318159000035]},"properties":{"ID":70,"TYPE":"Growth Centre","NAME":"MOLLAR HAT"}},
{"type":"Feature","geometry":{"type":"Point","coordinates":[89.55961269600004,22.980027665000023]},"properties":{"ID":70,"TYPE":"Growth Centre","NAME":"Peruli Hat"}},
{"type":"Feature","geometry":{"type":"Point","coordinates":[89.07320977300003,22.977881816000036]},"properties":{"ID":70,"TYPE":"Growth Centre","NAME":"Bakra Hat"}},
{"type":"Feature","geometry":{"type":"Point","coordinates":[89.39285605700007,22.98248654200006]},"properties":{"ID":70,"TYPE":"Growth Centre","NAME":"Paira Hat"}},
{"type":"Feature","geometry":{"type":"Point","coordinates":[91.70696009700004,22.974492706000035]},"properties":{"ID":70,"TYPE":"Growth Centre","NAME":"BAGAN BAZER"}},
{"type":"Feature","geometry":{"type":"Point","coordinates":[91.51139972800007,22.977275664000047]},"properties":{"ID":70,"TYPE":"Growth Centre","NAME":"Koraiya Hat"}},
{"type":"Feature","geometry":{"type":"Point","coordinates":[89.16620255800007,22.98314195300003]},"properties":{"ID":70,"TYPE":"Growth Centre","NAME":"Rajgang Hat"}},
{"type":"Feature","geometry":{"type":"Point","coordinates":[90.70308721600009,22.983983962000025]},"properties":{"ID":70,"TYPE":"Growth Centre","NAME":"Khasher Hat G.c"}},
{"type":"Feature","geometry":{"type":"Point","coordinates":[91.33721390500006,22.981260348000035]},"properties":{"ID":70,"TYPE":"Growth Centre","NAME":"Silonia Gc"}},
{"type":"Feature","geometry":{"type":"Point","coordinates":[89.99253458100009,22.990011304000063]},"properties":{"ID":70,"TYPE":"Growth Centre","NAME":"Ghagar Hat"}},
{"type":"Feature","geometry":{"type":"Point","coordinates":[91.86985083600007,22.978075416000024]},"properties":{"ID":70,"TYPE":"Growth Centre","NAME":"Guimara Bazar"}},
{"type":"Feature","geometry":{"type":"Point","coordinates":[91.23615384800007,22.986002108000037]},"properties":{"ID":70,"TYPE":"Growth Centre","NAME":"Mirganj Hat"}},
{"type":"Feature","geometry":{"type":"Point","coordinates":[91.72169511600003,22.98279975500003]},"properties":{"ID":70,"TYPE":"Growth Centre","NAME":"Sonaipur Bazar"}},
{"type":"Feature","geometry":{"type":"Point","coordinates":[90.41465665300007,22.994859922000046]},"properties":{"ID":70,"TYPE":"Growth Centre","NAME":"Mirdhar Hat"}},
{"type":"Feature","geometry":{"type":"Point","coordinates":[91.45725365800007,22.989497037000035]},"properties":{"ID":70,"TYPE":"Growth Centre","NAME":"Laskar Gc"}},
{"type":"Feature","geometry":{"type":"Point","coordinates":[90.77101233600007,22.995203247000063]},"properties":{"ID":70,"TYPE":"Growth Centre","NAME":"Rakhalia G.c"}},
{"type":"Feature","geometry":{"type":"Point","coordinates":[90.23311665400007,23.00178810500006]},"properties":{"ID":70,"TYPE":"Growth Centre","NAME":"Torki Hat"}},
{"type":"Feature","geometry":{"type":"Point","coordinates":[90.06523341300004,23.002439538000033]},"properties":{"ID":70,"TYPE":"Growth Centre","NAME":"Bhandhabari Hat"}},
{"type":"Feature","geometry":{"type":"Point","coordinates":[92.20374872600007,22.988719659000026]},"properties":{"ID":70,"TYPE":"Growth Centre","NAME":"Mainnimukh Bazar"}},
{"type":"Feature","geometry":{"type":"Point","coordinates":[91.04384292200007,23.003566534000072]},"properties":{"ID":70,"TYPE":"Growth Centre","NAME":"Amirshapara Hat"}},
{"type":"Feature","geometry":{"type":"Point","coordinates":[90.88584878200004,23.00798417200008]},"properties":{"ID":70,"TYPE":"Growth Centre","NAME":"Poddar Hat"}},
{"type":"Feature","geometry":{"type":"Point","coordinates":[91.27608958900004,23.00679784500005]},"properties":{"ID":70,"TYPE":"Growth Centre","NAME":"Koroshmonshir Hat"}},
{"type":"Feature","geometry":{"type":"Point","coordinates":[91.36846138400006,23.006643517000043]},"properties":{"ID":70,"TYPE":"Growth Centre","NAME":"Panchgachya Gc"}},
{"type":"Feature","geometry":{"type":"Point","coordinates":[89.75693857400006,23.014316133000023]},"properties":{"ID":70,"TYPE":"Growth Centre","NAME":"Jogonia Hat"}},
{"type":"Feature","geometry":{"type":"Point","coordinates":[90.97349551100007,23.01221942600006]},"properties":{"ID":70,"TYPE":"Growth Centre","NAME":"Khilpara Bazar"}},
{"type":"Feature","geometry":{"type":"Point","coordinates":[91.15377221100005,23.012265358000036]},"properties":{"ID":70,"TYPE":"Growth Centre","NAME":"Kashipur Hat"}},
{"type":"Feature","geometry":{"type":"Point","coordinates":[90.68918674500009,23.01822610200003]},"properties":{"ID":70,"TYPE":"Growth Centre","NAME":"Haiderganj G.c"}},
{"type":"Feature","geometry":{"type":"Point","coordinates":[89.90156084800003,23.022699105000072]},"properties":{"ID":70,"TYPE":"Growth Centre","NAME":"Kathi Hat"}},
{"type":"Feature","geometry":{"type":"Point","coordinates":[89.23641498600006,23.024333227000056]},"properties":{"ID":70,"TYPE":"Growth Centre","NAME":"Monirampur Hat"}},
{"type":"Feature","geometry":{"type":"Point","coordinates":[89.53774577300004,23.03041542400007]},"properties":{"ID":70,"TYPE":"Growth Centre","NAME":"Khorolia Hat"}},
{"type":"Feature","geometry":{"type":"Point","coordinates":[89.40091175700007,23.03119338500005]},"properties":{"ID":70,"TYPE":"Growth Centre","NAME":"Nowapara Hat"}},
{"type":"Feature","geometry":{"type":"Point","coordinates":[89.06429951900003,23.03261021700007]},"properties":{"ID":70,"TYPE":"Growth Centre","NAME":"Shiordah Hat"}},
{"type":"Feature","geometry":{"type":"Point","coordinates":[90.77223116200008,23.03448119500007]},"properties":{"ID":70,"TYPE":"Growth Centre","NAME":"Raipur G.c"}},
{"type":"Feature","geometry":{"type":"Point","coordinates":[92.01784917400005,23.025340424000035]},"properties":{"ID":70,"TYPE":"Growth Centre","NAME":"Maischari Bazar"}},
{"type":"Feature","geometry":{"type":"Point","coordinates":[89.33378272300007,23.038259570000037]},"properties":{"ID":70,"TYPE":"Growth Centre","NAME":"Sundala Bazar"}},
{"type":"Feature","geometry":{"type":"Point","coordinates":[90.89996422900003,23.03866769600006]},"properties":{"ID":70,"TYPE":"Growth Centre","NAME":"Shyampur Miar Hat"}},
{"type":"Feature","geometry":{"type":"Point","coordinates":[89.15004865200007,23.039161255000067]},"properties":{"ID":70,"TYPE":"Growth Centre","NAME":"Khedapara Hat"}},
{"type":"Feature","geometry":{"type":"Point","coordinates":[90.65868007000006,23.040060778000054]},"properties":{"ID":70,"TYPE":"Growth Centre","NAME":"Char Bhairabi Bazar"}},
{"type":"Feature","geometry":{"type":"Point","coordinates":[89.63155427600003,23.04348292700007]},"properties":{"ID":70,"TYPE":"Growth Centre","NAME":"Kalia Hat"}},
{"type":"Feature","geometry":{"type":"Point","coordinates":[91.20105446700006,23.040307899000027]},"properties":{"ID":70,"TYPE":"Growth Centre","NAME":"Kankir Hat"}},
{"type":"Feature","geometry":{"type":"Point","coordinates":[89.75944007100009,23.045294354000077]},"properties":{"ID":70,"TYPE":"Growth Centre","NAME":"Talakakania Hat"}},
{"type":"Feature","geometry":{"type":"Point","coordinates":[88.90031655900003,23.041908254000077]},"properties":{"ID":70,"TYPE":"Growth Centre","NAME":"Benapole Hat"}},
{"type":"Feature","geometry":{"type":"Point","coordinates":[91.51630503800004,23.04118800400005]},"properties":{"ID":70,"TYPE":"Growth Centre","NAME":"Zamaddar Hat"}},
{"type":"Feature","geometry":{"type":"Point","coordinates":[91.09870500000005,23.045260880000058]},"properties":{"ID":70,"TYPE":"Growth Centre","NAME":"Sonaimuri Hat"}},
{"type":"Feature","geometry":{"type":"Point","coordinates":[90.91865051900004,23.050060298000062]},"properties":{"ID":70,"TYPE":"Growth Centre","NAME":"Shahapur Bazar"}},
{"type":"Feature","geometry":{"type":"Point","coordinates":[91.87340985000009,23.040834731000075]},"properties":{"ID":70,"TYPE":"Growth Centre","NAME":"Matiranga Bazar"}},
{"type":"Feature","geometry":{"type":"Point","coordinates":[90.83467139200008,23.053435621000062]},"properties":{"ID":70,"TYPE":"Growth Centre","NAME":"Panpara Bazar"}},
{"type":"Feature","geometry":{"type":"Point","coordinates":[88.95500164800006,23.053581076000057]},"properties":{"ID":70,"TYPE":"Growth Centre","NAME":"Sharsha  Hat"}},
{"type":"Feature","geometry":{"type":"Point","coordinates":[90.44191984000008,23.056894421000038]},"properties":{"ID":70,"TYPE":"Growth Centre","NAME":"Haturia Hat"}},
{"type":"Feature","geometry":{"type":"Point","coordinates":[90.04939059800006,23.05797806100003]},"properties":{"ID":70,"TYPE":"Growth Centre","NAME":"Bhangor Hat"}},
{"type":"Feature","geometry":{"type":"Point","coordinates":[88.99372159300003,23.055811120000044]},"properties":{"ID":70,"TYPE":"Growth Centre","NAME":"Navaran Hat"}},
{"type":"Feature","geometry":{"type":"Point","coordinates":[91.34100504900005,23.055421575000025]},"properties":{"ID":70,"TYPE":"Growth Centre","NAME":"Sharishadi Gc"}},
{"type":"Feature","geometry":{"type":"Point","coordinates":[90.97407027800006,23.062863057000072]},"properties":{"ID":70,"TYPE":"Growth Centre","NAME":"Chatkhil Bazar"}},
{"type":"Feature","geometry":{"type":"Point","coordinates":[89.57592794000004,23.065641963000076]},"properties":{"ID":70,"TYPE":"Growth Centre","NAME":"Chanchuri Hat"}},
{"type":"Feature","geometry":{"type":"Point","coordinates":[90.66650578900004,23.06714560100005]},"properties":{"ID":70,"TYPE":"Growth Centre","NAME":"Haimchar Bazar"}},
{"type":"Feature","geometry":{"type":"Point","coordinates":[89.28383915300003,23.067877021000072]},"properties":{"ID":70,"TYPE":"Growth Centre","NAME":"Dhakuria Hat"}},
{"type":"Feature","geometry":{"type":"Point","coordinates":[91.24346568200008,23.06855868300005]},"properties":{"ID":70,"TYPE":"Growth Centre","NAME":"Boxganj Bazar"}},
{"type":"Feature","geometry":{"type":"Point","coordinates":[89.53195325200005,23.07436152300005]},"properties":{"ID":70,"TYPE":"Growth Centre","NAME":"Shngasolpur GC"}},
{"type":"Feature","geometry":{"type":"Point","coordinates":[90.24607051400005,23.075993151000034]},"properties":{"ID":70,"TYPE":"Growth Centre","NAME":"KALKINI DANLOP BAZAR"}},
{"type":"Feature","geometry":{"type":"Point","coordinates":[90.43800576400008,23.07750917100003]},"properties":{"ID":70,"TYPE":"Growth Centre","NAME":"Dasherjangol Hat"}},
{"type":"Feature","geometry":{"type":"Point","coordinates":[89.72826975900006,23.083310493000056]},"properties":{"ID":70,"TYPE":"Growth Centre","NAME":"Ghenasur Hat"}},
{"type":"Feature","geometry":{"type":"Point","coordinates":[89.32733498800008,23.082245852000028]},"properties":{"ID":70,"TYPE":"Growth Centre","NAME":"Magura Hat"}},
{"type":"Feature","geometry":{"type":"Point","coordinates":[90.20611192100006,23.085207725000032]},"properties":{"ID":70,"TYPE":"Growth Centre","NAME":"GOPALPUR HAT"}},
{"type":"Feature","geometry":{"type":"Point","coordinates":[90.12609837800005,23.087233663000063]},"properties":{"ID":70,"TYPE":"Growth Centre","NAME":"SHOSIKOR HAT"}},
{"type":"Feature","geometry":{"type":"Point","coordinates":[89.68074263100004,23.08722313000004]},"properties":{"ID":70,"TYPE":"Growth Centre","NAME":"Bordia Hat"}},
{"type":"Feature","geometry":{"type":"Point","coordinates":[90.00357789200007,23.088780405000023]},"properties":{"ID":70,"TYPE":"Growth Centre","NAME":"Kaligonj Hat"}},
{"type":"Feature","geometry":{"type":"Point","coordinates":[91.30464813200007,23.090108084000065]},"properties":{"ID":70,"TYPE":"Growth Centre","NAME":"Gunabati Hat"}},
{"type":"Feature","geometry":{"type":"Point","coordinates":[90.73921626400005,23.096450809000032]},"properties":{"ID":70,"TYPE":"Growth Centre","NAME":"Kalir Bazar"}},
{"type":"Feature","geometry":{"type":"Point","coordinates":[90.33418208700004,23.098461901000064]},"properties":{"ID":70,"TYPE":"Growth Centre","NAME":"KHASHER HAT"}},
{"type":"Feature","geometry":{"type":"Point","coordinates":[90.38420560700007,23.098612350000053]},"properties":{"ID":70,"TYPE":"Growth Centre","NAME":"Nagerpara Hat"}},
{"type":"Feature","geometry":{"type":"Point","coordinates":[89.88955944800006,23.100109875000044]},"properties":{"ID":70,"TYPE":"Growth Centre","NAME":"Boultali Hat"}},
{"type":"Feature","geometry":{"type":"Point","coordinates":[89.10507785100003,23.099466944000028]},"properties":{"ID":70,"TYPE":"Growth Centre","NAME":"Jhikargacha Hat"}},
{"type":"Feature","geometry":{"type":"Point","coordinates":[90.69521197000006,23.101594085000045]},"properties":{"ID":70,"TYPE":"Growth Centre","NAME":"Rampur Bazar"}},
{"type":"Feature","geometry":{"type":"Point","coordinates":[92.22585211200004,23.08648797400008]},"properties":{"ID":70,"TYPE":"Growth Centre","NAME":"Durchhari Hat"}},
{"type":"Feature","geometry":{"type":"Point","coordinates":[89.39313144300007,23.103033551000067]},"properties":{"ID":70,"TYPE":"Growth Centre","NAME":"Shaikhati GC"}},
{"type":"Feature","geometry":{"type":"Point","coordinates":[90.48944332400004,23.10505655700007]},"properties":{"ID":70,"TYPE":"Growth Centre","NAME":"Kodalpur Bazar"}},
{"type":"Feature","geometry":{"type":"Point","coordinates":[89.91897174300004,23.107775375000074]},"properties":{"ID":70,"TYPE":"Growth Centre","NAME":"Patkalbari Hat"}},
{"type":"Feature","geometry":{"type":"Point","coordinates":[90.86125225500007,23.10611599500004]},"properties":{"ID":70,"TYPE":"Growth Centre","NAME":"Sonapur Bazar"}},
{"type":"Feature","geometry":{"type":"Point","coordinates":[89.49670424800007,23.108728257000053]},"properties":{"ID":70,"TYPE":"Growth Centre","NAME":"Gobra GC"}},
{"type":"Feature","geometry":{"type":"Point","coordinates":[90.64767398500004,23.108638359000054]},"properties":{"ID":70,"TYPE":"Growth Centre","NAME":"Katakhali Hat"}},
{"type":"Feature","geometry":{"type":"Point","coordinates":[91.49496468800004,23.102839766000045]},"properties":{"ID":70,"TYPE":"Growth Centre","NAME":"Monur Hat"}},
{"type":"Feature","geometry":{"type":"Point","coordinates":[91.43405509800004,23.11308886000006]},"properties":{"ID":70,"TYPE":"Growth Centre","NAME":"Munshir Hat"}},
{"type":"Feature","geometry":{"type":"Point","coordinates":[90.54408905800005,23.126945362000072]},"properties":{"ID":70,"TYPE":"Growth Centre","NAME":"Ishanbala Bazar"}},
{"type":"Feature","geometry":{"type":"Point","coordinates":[91.49438843300004,23.117621478000046]},"properties":{"ID":70,"TYPE":"Growth Centre","NAME":"Amjad Hat"}},
{"type":"Feature","geometry":{"type":"Point","coordinates":[89.29728308700004,23.12699944900004]},"properties":{"ID":70,"TYPE":"Growth Centre","NAME":"Rupdia Hat"}},
{"type":"Feature","geometry":{"type":"Point","coordinates":[88.97453220900007,23.126169821000076]},"properties":{"ID":70,"TYPE":"Growth Centre","NAME":"Gorpara Hat"}},
{"type":"Feature","geometry":{"type":"Point","coordinates":[90.41693199200006,23.130070656000044]},"properties":{"ID":70,"TYPE":"Growth Centre","NAME":"Shadholkuna Hat"}},
{"type":"Feature","geometry":{"type":"Point","coordinates":[90.95338138400007,23.128176214000064]},"properties":{"ID":70,"TYPE":"Growth Centre","NAME":"Dalta Bazar"}},
{"type":"Feature","geometry":{"type":"Point","coordinates":[91.23824818800006,23.127549405000025]},"properties":{"ID":70,"TYPE":"Growth Centre","NAME":"Dhalua Bazar"}},
{"type":"Feature","geometry":{"type":"Point","coordinates":[90.78053037400008,23.13138377000007]},"properties":{"ID":70,"TYPE":"Growth Centre","NAME":"Rupsa Hat"}},
{"type":"Feature","geometry":{"type":"Point","coordinates":[91.01136157800005,23.13033080400004]},"properties":{"ID":70,"TYPE":"Growth Centre","NAME":"Hasanabad Hat"}},
{"type":"Feature","geometry":{"type":"Point","coordinates":[90.91732214600006,23.131396212000027]},"properties":{"ID":70,"TYPE":"Growth Centre","NAME":"Paniala Bazer"}},
{"type":"Feature","geometry":{"type":"Point","coordinates":[89.37262545200008,23.134144895000077]},"properties":{"ID":70,"TYPE":"Growth Centre","NAME":"Basundia Hat"}},
{"type":"Feature","geometry":{"type":"Point","coordinates":[90.74060345600003,23.133842196000046]},"properties":{"ID":70,"TYPE":"Growth Centre","NAME":"Faridganj Bazar"}},
{"type":"Feature","geometry":{"type":"Point","coordinates":[91.87287408300006,23.126199280000037]},"properties":{"ID":70,"TYPE":"Growth Centre","NAME":"Gumti Bazar"}},
{"type":"Feature","geometry":{"type":"Point","coordinates":[89.96923075200004,23.139616787000023]},"properties":{"ID":70,"TYPE":"Growth Centre","NAME":"KADAMBARI HAT"}},
{"type":"Feature","geometry":{"type":"Point","coordinates":[89.25107353300007,23.140069888000028]},"properties":{"ID":70,"TYPE":"Growth Centre","NAME":"Rajar Hat"}},
{"type":"Feature","geometry":{"type":"Point","coordinates":[90.65896079800007,23.141969216000064]},"properties":{"ID":70,"TYPE":"Growth Centre","NAME":"Chandra Hat"}},
{"type":"Feature","geometry":{"type":"Point","coordinates":[91.09675268300003,23.13983704700007]},"properties":{"ID":70,"TYPE":"Growth Centre","NAME":"Munshir Hat"}},
{"type":"Feature","geometry":{"type":"Point","coordinates":[89.71466554500006,23.144487708000042]},"properties":{"ID":70,"TYPE":"Growth Centre","NAME":"Radhanagar Hat"}},
{"type":"Feature","geometry":{"type":"Point","coordinates":[91.28744743900006,23.143408152000063]},"properties":{"ID":70,"TYPE":"Growth Centre","NAME":"Dhorkara Bazar"}},
{"type":"Feature","geometry":{"type":"Point","coordinates":[91.32076097900006,23.148170306000054]},"properties":{"ID":70,"TYPE":"Growth Centre","NAME":"Cheora Bazar Gc"}},
{"type":"Feature","geometry":{"type":"Point","coordinates":[90.44708602700007,23.15560130600005]},"properties":{"ID":70,"TYPE":"Growth Centre","NAME":"Domuddya Hat"}},
{"type":"Feature","geometry":{"type":"Point","coordinates":[91.43270286300003,23.150591303000056]},